[{"spatial_id":"693","spatial_type":"Place","spatial_title":"Ernabella, South Australia, Australia","spatial_roleName":"Place made","spatial_interactionType":"Production","spatial_geo":"-26.2642,132.176","spatial_description":null,"id":"124081","lat":"-26.2642","lon":"132.176"},{"spatial_id":"383","spatial_type":"Place","spatial_title":"Cabbage Tree Island, New South Wales, Australia","spatial_roleName":null,"spatial_interactionType":"Production","spatial_geo":"-32.67,152.23","spatial_description":null,"id":"42084","lat":"-32.67","lon":"152.23"},{"spatial_id":"80019","spatial_type":"Place","spatial_title":"Central Australia, Northern Territory, Australia","spatial_roleName":null,"spatial_interactionType":"Production","spatial_geo":"-24.3617,133.735","spatial_description":null,"id":"6840","lat":"-24.3617","lon":"133.735"},{"spatial_id":"4329","spatial_type":"Place","spatial_title":"Mount Hagen, Western Highlands Province, Papua New Guinea, Oceania","spatial_roleName":"Place made","spatial_interactionType":"Production","spatial_geo":"-5.8581,144.243","spatial_description":null,"id":"203086","lat":"-5.8581","lon":"144.243"},{"spatial_id":"1883","spatial_type":"Place","spatial_title":"Tasmania, Australia","spatial_roleName":null,"spatial_interactionType":"Production","spatial_geo":"-41.9253,146.497","spatial_description":null,"id":"70975","lat":"-41.9253","lon":"146.497"},{"spatial_id":"1240","spatial_type":"Place","spatial_title":"Melville Island, Tiwi Islands, Northern Territory, Australia","spatial_roleName":"Place made","spatial_interactionType":"Production","spatial_geo":"-11.55,130.93","spatial_description":null,"id":"64618","lat":"-11.55","lon":"130.93"},{"spatial_id":"553","spatial_type":"Place","spatial_title":"Croker Island, Northern Territory, Australia","spatial_roleName":null,"spatial_interactionType":"Production","spatial_geo":"-11.13,132.55","spatial_description":null,"id":"19483","lat":"-11.13","lon":"132.55"},{"spatial_id":"47","spatial_type":"Place","spatial_title":"Sydney, New South Wales, Australia","spatial_roleName":"Place made","spatial_interactionType":"Production","spatial_geo":"-33.85,151.2","spatial_description":null,"id":"125583","lat":"-33.85","lon":"151.2"},{"spatial_id":"1426","spatial_type":"Place","spatial_title":"The Netherlands","spatial_roleName":null,"spatial_interactionType":"Production","spatial_geo":"52.1325,5.2911","spatial_description":null,"id":"114970","lat":"52.1325","lon":"5.2911"},{"spatial_id":"80128","spatial_type":"Place","spatial_title":"Germany","spatial_roleName":"Place printed","spatial_interactionType":"Production","spatial_geo":"51.1656,10.4514","spatial_description":null,"id":"28010","lat":"51.1656","lon":"10.4514"},{"spatial_id":"80110","spatial_type":"Place","spatial_title":"Australia","spatial_roleName":"Place made","spatial_interactionType":"Production","spatial_geo":"-25,133","spatial_description":null,"id":"55466","lat":"-25","lon":"133"},{"spatial_id":"2620","spatial_type":"Place","spatial_title":"Fitzroy Crossing, Western Australia, Australia","spatial_roleName":null,"spatial_interactionType":"Production","spatial_geo":"-18.1906,125.567","spatial_description":null,"id":"159982","lat":"-18.1906","lon":"125.567"},{"spatial_id":"80124","spatial_type":"Place","spatial_title":"England","spatial_roleName":null,"spatial_interactionType":"Production","spatial_geo":"52.435,-1.6772","spatial_description":null,"id":"130634","lat":"52.435","lon":"-1.6772"},{"spatial_id":"2660","spatial_type":"Place","spatial_title":"Gladstone, South Australia, Australia","spatial_roleName":"Place of issue","spatial_interactionType":"Production","spatial_geo":"-33.2697,138.352","spatial_description":null,"id":"110666","lat":"-33.2697","lon":"138.352"},{"spatial_id":"2121","spatial_type":"Place","spatial_title":"Woodenbong, New South Wales, Australia","spatial_roleName":"Place created","spatial_interactionType":"Production","spatial_geo":"-28.38,152.6","spatial_description":null,"id":"44389","lat":"-28.38","lon":"152.6"},{"spatial_id":"105","spatial_type":"Place","spatial_title":"Angurugu, Groote Eylandt, Northern Territory, Australia","spatial_roleName":"Place Made","spatial_interactionType":"Production","spatial_geo":"-13.97,136.45","spatial_description":null,"id":"123532","lat":"-13.97","lon":"136.45"},{"spatial_id":"1261","spatial_type":"Place","spatial_title":"Milingimbi, Central Arnhem Land, Northern Territory, Australia","spatial_roleName":"Place made","spatial_interactionType":"Production","spatial_geo":"-12.1,134.92","spatial_description":null,"id":"146026","lat":"-12.1","lon":"134.92"},{"spatial_id":"1481","spatial_type":"Place","spatial_title":"North Melbourne, Melbourne, Victoria, Australia","spatial_roleName":"Place made","spatial_interactionType":"Production","spatial_geo":"-37.8029,144.948","spatial_description":null,"id":"123042","lat":"-37.8029","lon":"144.948"},{"spatial_id":"1642","spatial_type":"Place","spatial_title":"Samoa","spatial_roleName":"Place made","spatial_interactionType":"Production","spatial_geo":"-13.645,-172.352","spatial_description":null,"id":"171547","lat":"-13.645","lon":"-172.352"},{"spatial_id":"20","spatial_type":"Place","spatial_title":"Darwin, Northern Territory, Australia","spatial_roleName":"Place made","spatial_interactionType":"Production","spatial_geo":"-12.45,130.83","spatial_description":null,"id":"54831","lat":"-12.45","lon":"130.83"},{"spatial_id":"80109","spatial_type":"Place","spatial_title":"Adelaide, South Australia, Australia","spatial_roleName":null,"spatial_interactionType":"Production","spatial_geo":"-34.9167,138.6","spatial_description":null,"id":"47133","lat":"-34.9167","lon":"138.6"},{"spatial_id":"1194","spatial_type":"Place","spatial_title":"Maningrida, West Arnhem Land, Northern Territory, Australia","spatial_roleName":"Place made","spatial_interactionType":"Production","spatial_geo":"-12.05,134.217","spatial_description":null,"id":"6506","lat":"-12.05","lon":"134.217"},{"spatial_id":"29","spatial_type":"Place","spatial_title":"London, England","spatial_roleName":"Place of publication","spatial_interactionType":"Production","spatial_geo":"51.5072,-0.1278","spatial_description":null,"id":"106443","lat":"51.5072","lon":"-0.1278"},{"spatial_id":"1011","spatial_type":"Place","spatial_title":"Kimberley, Western Australia, Australia","spatial_roleName":null,"spatial_interactionType":"Production","spatial_geo":"-17.9167,122.2","spatial_description":null,"id":"11270","lat":"-17.9167","lon":"122.2"},{"spatial_id":"380","spatial_type":"Place","spatial_title":"Byrock, New South Wales, Australia","spatial_roleName":"Place made","spatial_interactionType":"Production","spatial_geo":"-30.48,146.4","spatial_description":null,"id":"10681","lat":"-30.48","lon":"146.4"},{"spatial_id":"845","spatial_type":"Place","spatial_title":"Groote Eylandt, Northern Territory, Australia","spatial_roleName":null,"spatial_interactionType":"Production","spatial_geo":"-13.9333,136.6","spatial_description":null,"id":"19389","lat":"-13.9333","lon":"136.6"},{"spatial_id":"4567","spatial_type":"Place","spatial_title":"Yirrkala School, Yirrkala, East Arnhem Land, Northern Territory, Australia","spatial_roleName":"Place created","spatial_interactionType":"Production","spatial_geo":"-12.2528,136.892","spatial_description":null,"id":"44879","lat":"-12.2528","lon":"136.892"},{"spatial_id":"124","spatial_type":"Place","spatial_title":"Arnhem Land, Northern Territory, Australia","spatial_roleName":null,"spatial_interactionType":"Production","spatial_geo":"-12.8333,134.833","spatial_description":null,"id":"15636","lat":"-12.8333","lon":"134.833"},{"spatial_id":"336","spatial_type":"Place","spatial_title":"Broome, Western Australia, Australia","spatial_roleName":"Place made","spatial_interactionType":"Production","spatial_geo":"-17.95,122.23","spatial_description":null,"id":"60365","lat":"-17.95","lon":"122.23"},{"spatial_id":"1539","spatial_type":"Place","spatial_title":"Nyapari Homeland, South Australia, Australia","spatial_roleName":"Place created","spatial_interactionType":"Production","spatial_geo":"-26.17,130.22","spatial_description":null,"id":"229332","lat":"-26.17","lon":"130.22"},{"spatial_id":"1129","spatial_type":"Place","spatial_title":"Lockhart River, Queensland, Australia","spatial_roleName":"Place made","spatial_interactionType":"Production","spatial_geo":"-12.9,143.4","spatial_description":null,"id":"202257","lat":"-12.9","lon":"143.4"},{"spatial_id":"80373","spatial_type":"Place","spatial_title":"Torres Strait Islands, Queensland, Australia","spatial_roleName":"Place made","spatial_interactionType":"Production","spatial_geo":"-10.5,142.25","spatial_description":null,"id":"52676","lat":"-10.5","lon":"142.25"},{"spatial_id":"80140","spatial_type":"Place","spatial_title":"New South Wales, Australia","spatial_roleName":"Place made","spatial_interactionType":"Production","spatial_geo":"-31.2531,146.921","spatial_description":"Malua Bay, NSW (catalogue worksheet)","id":"131129","lat":"-31.2531","lon":"146.921"},{"spatial_id":"1786","spatial_type":"Place","spatial_title":"Milikapiti (Snake Bay), Melville Island, Tiwi Islands, Northern Territory, Australia","spatial_roleName":"Place of production","spatial_interactionType":"Production","spatial_geo":"-11.4,130.67","spatial_description":"Ref NMA Catalogue Worksheet","id":"18415","lat":"-11.4","lon":"130.67"},{"spatial_id":"689","spatial_type":"Place","spatial_title":"England, United Kingdom","spatial_roleName":"Place photographed","spatial_interactionType":"Production","spatial_geo":"52.435,-1.6772","spatial_description":null,"id":"118984","lat":"52.435","lon":"-1.6772"},{"spatial_id":"1551","spatial_type":"Place","spatial_title":"Old Parliament House, Parkes, Canberra, Australian Capital Territory, Australia","spatial_roleName":"Place printed","spatial_interactionType":"Production","spatial_geo":"-35.3023,149.13","spatial_description":null,"id":"113558","lat":"-35.3023","lon":"149.13"},{"spatial_id":"649","spatial_type":"Place","spatial_title":"East Gippsland, Victoria, Australia","spatial_roleName":null,"spatial_interactionType":"Production","spatial_geo":"-37.38,148.35","spatial_description":null,"id":"70485","lat":"-37.38","lon":"148.35"},{"spatial_id":"45","spatial_type":"Place","spatial_title":"Melbourne, Victoria, Australia","spatial_roleName":null,"spatial_interactionType":"Production","spatial_geo":"-37.8167,144.967","spatial_description":null,"id":"171391","lat":"-37.8167","lon":"144.967"},{"spatial_id":"4555","spatial_type":"Place","spatial_title":"St Francis Xavier School, Daly River, Northern Territory, Australia","spatial_roleName":"Place created","spatial_interactionType":"Production","spatial_geo":"-13.75,130.68","spatial_description":null,"id":"42334","lat":"-13.75","lon":"130.68"},{"spatial_id":"80020","spatial_type":"Place","spatial_title":"Charlotte Waters, Northern Territory, Australia","spatial_roleName":"Place made","spatial_interactionType":"Production","spatial_geo":"-25.93,134.92","spatial_description":null,"id":"10931","lat":"-25.93","lon":"134.92"},{"spatial_id":"690","spatial_type":"Place","spatial_title":"England, Great Britain","spatial_roleName":null,"spatial_interactionType":"Production","spatial_geo":"52.435,-1.6772","spatial_description":"Place of printing","id":"140003","lat":"52.435","lon":"-1.6772"},{"spatial_id":"16","spatial_type":"Place","spatial_title":"Brisbane, Queensland, Australia","spatial_roleName":"Place created","spatial_interactionType":"Production","spatial_geo":"-27.4711,153.024","spatial_description":null,"id":"237274","lat":"-27.4711","lon":"153.024"},{"spatial_id":"80386","spatial_type":"Place","spatial_title":"Victoria, Australia","spatial_roleName":null,"spatial_interactionType":"Production","spatial_geo":"-37.4714,144.785","spatial_description":null,"id":"17920","lat":"-37.4714","lon":"144.785"},{"spatial_id":"1489","spatial_type":"Place","spatial_title":"Yirrkala, East Arnhem Land, Northern Territory, Australia","spatial_roleName":null,"spatial_interactionType":"Production","spatial_geo":"-12.2528,136.892","spatial_description":null,"id":"46055","lat":"-12.2528","lon":"136.892"},{"spatial_id":"80132","spatial_type":"Place","spatial_title":"Great Britain","spatial_roleName":"Place printed","spatial_interactionType":"Production","spatial_geo":"55.3781,-3.4358","spatial_description":null,"id":"140732","lat":"55.3781","lon":"-3.4358"},{"spatial_id":"861","spatial_type":"Place","spatial_title":"Gunbalanya (Oenpelli), Western Arnhem Land, Northern Territory, Australia","spatial_roleName":null,"spatial_interactionType":"Production","spatial_geo":"-12.32,133.05","spatial_description":null,"id":"45717","lat":"-12.32","lon":"133.05"},{"spatial_id":"242","spatial_type":"Place","spatial_title":"Beswick, Northern Territory, Australia","spatial_roleName":null,"spatial_interactionType":"Production","spatial_geo":"-14.55,133.1","spatial_description":null,"id":"19149","lat":"-14.55","lon":"133.1"},{"spatial_id":"143","spatial_type":"Place","spatial_title":"Aurukun, Cape York Peninsula, Queensland, Australia","spatial_roleName":"Place made","spatial_interactionType":"Production","spatial_geo":"-13.6,141.8","spatial_description":null,"id":"43415","lat":"-13.6","lon":"141.8"},{"spatial_id":"683","spatial_type":"Place","spatial_title":"Emily Gap, Macdonnell Ranges, Northern Territory, Australia","spatial_roleName":"Place designed","spatial_interactionType":"Production","spatial_geo":"-23.73,133.93","spatial_description":null,"id":"14653","lat":"-23.73","lon":"133.93"},{"spatial_id":"9","spatial_type":"Place","spatial_title":"London, England","spatial_roleName":"Place made","spatial_interactionType":"Production","spatial_geo":"51.5072,-0.1278","spatial_description":null,"id":"222236","lat":"51.5072","lon":"-0.1278"},{"spatial_id":"2451","spatial_type":"Place","spatial_title":"Nullarbor Plain, Western Australia, Australia","spatial_roleName":null,"spatial_interactionType":"Production","spatial_geo":"-31.1308,128.474","spatial_description":null,"id":"11030","lat":"-31.1308","lon":"128.474"},{"spatial_id":"728","spatial_type":"Place","spatial_title":"Great Australian Bight, South Australia, Australia","spatial_roleName":null,"spatial_interactionType":"Production","spatial_geo":"-34.7167,135.333","spatial_description":null,"id":"11030","lat":"-34.7167","lon":"135.333"},{"spatial_id":"1531","spatial_type":"Place","spatial_title":"Nullarbor Plain, South Australia, Australia","spatial_roleName":null,"spatial_interactionType":"Production","spatial_geo":"-30.75,129","spatial_description":null,"id":"11030","lat":"-30.75","lon":"129"},{"spatial_id":"695","spatial_type":"Place","spatial_title":"Darnley (Erub) Island, Torres Strait, Queensland, Australia","spatial_roleName":"Place created","spatial_interactionType":"Production","spatial_geo":"-9.58,143.77","spatial_description":null,"id":"236207","lat":"-9.58","lon":"143.77"},{"spatial_id":"80015","spatial_type":"Place","spatial_title":"Canberra, Australian Capital Territory, Australia","spatial_roleName":"Place of publication","spatial_interactionType":"Production","spatial_geo":"-35.3,149.13","spatial_description":null,"id":"109724","lat":"-35.3","lon":"149.13"},{"spatial_id":"511","spatial_type":"Place","spatial_title":"Condobolin, New South Wales, Australia","spatial_roleName":"Place made","spatial_interactionType":"Production","spatial_geo":"-33.05,147.15","spatial_description":null,"id":"50277","lat":"-33.05","lon":"147.15"},{"spatial_id":"93","spatial_type":"Place","spatial_title":"Alice Springs, Northern Territory, Australia","spatial_roleName":"Place created","spatial_interactionType":"Production","spatial_geo":"-23.7,133.87","spatial_description":null,"id":"44149","lat":"-23.7","lon":"133.87"},{"spatial_id":"2368","spatial_type":"Place","spatial_title":"Ukraine","spatial_roleName":"Place made","spatial_interactionType":"Production","spatial_geo":"48.3794,31.1656","spatial_description":null,"id":"51212","lat":"48.3794","lon":"31.1656"},{"spatial_id":"817","spatial_type":"Place","spatial_title":"Goulburn, New South Wales, Australia","spatial_roleName":"Place photographed","spatial_interactionType":"Production","spatial_geo":"-34.73,149.73","spatial_description":null,"id":"74790","lat":"-34.73","lon":"149.73"},{"spatial_id":"1647","spatial_type":"Place","spatial_title":"Port Lincoln, Eyre Peninsula, South Australia, Australia","spatial_roleName":"Place made","spatial_interactionType":"Production","spatial_geo":"-34.72,135.85","spatial_description":null,"id":"45071","lat":"-34.72","lon":"135.85"},{"spatial_id":"963","spatial_type":"Place","spatial_title":"Jamieson Range, Western Australia, Australia","spatial_roleName":null,"spatial_interactionType":"Production","spatial_geo":"-25.85,127.7","spatial_description":null,"id":"51608","lat":"-25.85","lon":"127.7"},{"spatial_id":"3949","spatial_type":"Place","spatial_title":"Owarika AKA Santa Catalina Island, Solomon Islands","spatial_roleName":"Place made","spatial_interactionType":"Production","spatial_geo":"-10.89,162.446","spatial_description":null,"id":"124756","lat":"-10.89","lon":"162.446"},{"spatial_id":"790","spatial_type":"Place","spatial_title":"Glasgow, Scotland","spatial_roleName":"Place made","spatial_interactionType":"Production","spatial_geo":"55.8642,-4.2517","spatial_description":null,"id":"111507","lat":"55.8642","lon":"-4.2517"},{"spatial_id":"205","spatial_type":"Place","spatial_title":"Bathurst Island, Tiwi Islands, Northern Territory, Australia","spatial_roleName":null,"spatial_interactionType":"Production","spatial_geo":"-11.62,130.38","spatial_description":null,"id":"20424","lat":"-11.62","lon":"130.38"},{"spatial_id":"4246","spatial_type":"Place","spatial_title":"Sydney, New South Wales, Australia","spatial_roleName":"Place of issue","spatial_interactionType":"Production","spatial_geo":"-33.8689,151.209","spatial_description":null,"id":"223651","lat":"-33.8689","lon":"151.209"},{"spatial_id":"98","spatial_type":"Place","spatial_title":"Amata, South Australia, Australia","spatial_roleName":null,"spatial_interactionType":"Production","spatial_geo":"-26.15,131.13","spatial_description":null,"id":"51452","lat":"-26.15","lon":"131.13"},{"spatial_id":"1321","spatial_type":"Place","spatial_title":"Mowanjum, West Kimberley, Western Australia, Australia","spatial_roleName":null,"spatial_interactionType":"Production","spatial_geo":"-17.3561,123.701","spatial_description":null,"id":"5429","lat":"-17.3561","lon":"123.701"},{"spatial_id":"80378","spatial_type":"Place","spatial_title":"United Kingdom","spatial_roleName":"Place made","spatial_interactionType":"Production","spatial_geo":"54.91,-2.8783","spatial_description":null,"id":"75929","lat":"54.91","lon":"-2.8783"},{"spatial_id":"2662","spatial_type":"Place","spatial_title":"Clare, South Australia, Australia","spatial_roleName":"Place of issue","spatial_interactionType":"Production","spatial_geo":"-33.8397,138.613","spatial_description":null,"id":"110665","lat":"-33.8397","lon":"138.613"},{"spatial_id":"1603","spatial_type":"Place","spatial_title":"Perth, Western Australia, Australia","spatial_roleName":"Place of issue","spatial_interactionType":"Production","spatial_geo":"-31.95,115.85","spatial_description":null,"id":"58596","lat":"-31.95","lon":"115.85"},{"spatial_id":"80330","spatial_type":"Place","spatial_title":"South Australia, Australia","spatial_roleName":"Place made","spatial_interactionType":"Production","spatial_geo":"-30.0003,136.209","spatial_description":null,"id":"130289","lat":"-30.0003","lon":"136.209"},{"spatial_id":"530","spatial_type":"Place","spatial_title":"Coranderrk, Victoria, Australia","spatial_roleName":"Place made","spatial_interactionType":"Production","spatial_geo":"-37.68,145.5","spatial_description":null,"id":"5179","lat":"-37.68","lon":"145.5"},{"spatial_id":"25","spatial_type":"Place","spatial_title":"Lake Eyre, South Australia, Australia","spatial_roleName":null,"spatial_interactionType":"Production","spatial_geo":"-28.67,137.17","spatial_description":null,"id":"6841","lat":"-28.67","lon":"137.17"},{"spatial_id":"4571","spatial_type":"Place","spatial_title":"Kormilda College, Berrimah, Darwin, Northern Territory, Australia","spatial_roleName":"Place created","spatial_interactionType":"Production","spatial_geo":"-12.4436,130.922","spatial_description":null,"id":"45467","lat":"-12.4436","lon":"130.922"},{"spatial_id":"2216","spatial_type":"Place","spatial_title":"Oregon, United States of America","spatial_roleName":"Place made","spatial_interactionType":"Production","spatial_geo":"43.8039,-120.554","spatial_description":null,"id":"108351","lat":"43.8039","lon":"-120.554"},{"spatial_id":"80178","spatial_type":"Place","spatial_title":"Northern Territory, Australia","spatial_roleName":null,"spatial_interactionType":"Production","spatial_geo":"-19.4914,132.551","spatial_description":null,"id":"21741","lat":"-19.4914","lon":"132.551"},{"spatial_id":"320","spatial_type":"Place","spatial_title":"Armadale, Melbourne, Victoria, Australia","spatial_roleName":"Place of publication","spatial_interactionType":"Production","spatial_geo":"-37.85,145.02","spatial_description":null,"id":"3221","lat":"-37.85","lon":"145.02"},{"spatial_id":"80295","spatial_type":"Place","spatial_title":"Papua New Guinea, Oceania","spatial_roleName":"Place made","spatial_interactionType":"Production","spatial_geo":"-6.6867,144.459","spatial_description":null,"id":"203084","lat":"-6.6867","lon":"144.459"},{"spatial_id":"850","spatial_type":"Place","spatial_title":"Gulf of Carpentaria, Queensland, Australia","spatial_roleName":"Place made","spatial_interactionType":"Production","spatial_geo":"-13.98,139","spatial_description":null,"id":"19973","lat":"-13.98","lon":"139"},{"spatial_id":"2085","spatial_type":"Place","spatial_title":"Western Arnhem Land, Northern Territory, Australia","spatial_roleName":"Place made","spatial_interactionType":"Production","spatial_geo":"-27.6728,121.628","spatial_description":null,"id":"46688","lat":"-27.6728","lon":"121.628"},{"spatial_id":"275","spatial_type":"Place","spatial_title":"Blyth River, Northern Territory, Australia","spatial_roleName":"Place made","spatial_interactionType":"Production","spatial_geo":"-12.05,135.58","spatial_description":null,"id":"20078","lat":"-12.05","lon":"135.58"},{"spatial_id":"4242","spatial_type":"Place","spatial_title":"Cairns, Queensland, Australia","spatial_roleName":"Place made","spatial_interactionType":"Production","spatial_geo":"-16.9217,145.776","spatial_description":null,"id":"10683","lat":"-16.9217","lon":"145.776"},{"spatial_id":"307","spatial_type":"Place","spatial_title":"Bourke, New South Wales, Australia","spatial_roleName":null,"spatial_interactionType":"Production","spatial_geo":"-30.07,145.95","spatial_description":null,"id":"46302","lat":"-30.07","lon":"145.95"},{"spatial_id":"551","spatial_type":"Place","spatial_title":"Crewe, Cheshire, England","spatial_roleName":"Place made","spatial_interactionType":"Production","spatial_geo":"53.1003,-2.4439","spatial_description":null,"id":"37918","lat":"53.1003","lon":"-2.4439"},{"spatial_id":"1438","spatial_type":"Place","spatial_title":"New York, United States of America","spatial_roleName":"Place written","spatial_interactionType":"Production","spatial_geo":"40.7164,-73.2936","spatial_description":null,"id":"132541","lat":"40.7164","lon":"-73.2936"},{"spatial_id":"2670","spatial_type":"Place","spatial_title":"Saddleworth, South Australia, Australia","spatial_roleName":"Place of issue","spatial_interactionType":"Production","spatial_geo":"-34.0826,138.781","spatial_description":null,"id":"110668","lat":"-34.0826","lon":"138.781"},{"spatial_id":"1866","spatial_type":"Place","spatial_title":"Sweden","spatial_roleName":"Place designed","spatial_interactionType":"Production","spatial_geo":"64.2839,17.1825","spatial_description":null,"id":"61931","lat":"64.2839","lon":"17.1825"},{"spatial_id":"1176","spatial_type":"Place","spatial_title":"Malta","spatial_roleName":"Place photographed","spatial_interactionType":"Production","spatial_geo":"35.9375,14.3753","spatial_description":null,"id":"132937","lat":"35.9375","lon":"14.3753"},{"spatial_id":"2111","spatial_type":"Place","spatial_title":"Wingellina, Western Australia, Australia","spatial_roleName":"Place made","spatial_interactionType":"Production","spatial_geo":"-26.05,128.93","spatial_description":null,"id":"60856","lat":"-26.05","lon":"128.93"},{"spatial_id":"80380","spatial_type":"Place","spatial_title":"United States of America","spatial_roleName":"Place made","spatial_interactionType":"Production","spatial_geo":"39.7539,-101.573","spatial_description":null,"id":"126079","lat":"39.7539","lon":"-101.573"},{"spatial_id":"392","spatial_type":"Place","spatial_title":"Cairns, Queensland, Australia","spatial_roleName":"Place made","spatial_interactionType":"Production","spatial_geo":"-22.62,148.25","spatial_description":null,"id":"17432","lat":"-22.62","lon":"148.25"},{"spatial_id":"522","spatial_type":"Place","spatial_title":"Cooma, New South Wales, Australia","spatial_roleName":"Place of publication","spatial_interactionType":"Production","spatial_geo":"-36.22,149.12","spatial_description":null,"id":"79991","lat":"-36.22","lon":"149.12"},{"spatial_id":"1992","spatial_type":"Place","spatial_title":"Dandenong Ranges, Victoria, Australia","spatial_roleName":"Place photographed","spatial_interactionType":"Production","spatial_geo":"-37.8331,145.35","spatial_description":"Taken at The Patch, 39km east of Melbourne. 'Weardale' was the name of the homestead","id":"224633","lat":"-37.8331","lon":"145.35"},{"spatial_id":"80068","spatial_type":"Place","spatial_title":"Hermannsburg, Northern Territory, Australia","spatial_roleName":null,"spatial_interactionType":"Production","spatial_geo":"-23.95,132.77","spatial_description":null,"id":"239337","lat":"-23.95","lon":"132.77"},{"spatial_id":"1482","spatial_type":"Place","spatial_title":"North Queensland, Queensland, Australia","spatial_roleName":"Place made","spatial_interactionType":"Production","spatial_geo":"-17.0278,142.405","spatial_description":null,"id":"122324","lat":"-17.0278","lon":"142.405"},{"spatial_id":"572","spatial_type":"Place","spatial_title":"Fitzmaurice River, Northern Territory, Australia","spatial_roleName":"Place made","spatial_interactionType":"Production","spatial_geo":"-14.805,129.974","spatial_description":"Fitzmaurice River region","id":"20172","lat":"-14.805","lon":"129.974"},{"spatial_id":"80119","spatial_type":"Place","spatial_title":"China","spatial_roleName":"Place made","spatial_interactionType":"Production","spatial_geo":"35.8617,104.195","spatial_description":"\"Made in China\" tag is sewn on the garment.","id":"132688","lat":"35.8617","lon":"104.195"},{"spatial_id":"3950","spatial_type":"Place","spatial_title":"Owaraha AKA Santa Ana Island, Solomon Islands","spatial_roleName":"Place made","spatial_interactionType":"Production","spatial_geo":"-10.8344,162.467","spatial_description":null,"id":"125190","lat":"-10.8344","lon":"162.467"},{"spatial_id":"1836","spatial_type":"Place","spatial_title":"Dudley, Staffordshire, England","spatial_roleName":"Place made","spatial_interactionType":"Production","spatial_geo":"52.5123,-2.08111","spatial_description":null,"id":"37917","lat":"52.5123","lon":"-2.08111"},{"spatial_id":"3","spatial_type":"Place","spatial_title":"Cooper Creek, Queensland, Australia","spatial_roleName":"Place made","spatial_interactionType":"Production","spatial_geo":"-28.4,137.7","spatial_description":null,"id":"62316","lat":"-28.4","lon":"137.7"},{"spatial_id":"80448","spatial_type":"Place","spatial_title":"Western Australia, Australia","spatial_roleName":"Place made","spatial_interactionType":"Production","spatial_geo":"-27.6728,121.628","spatial_description":null,"id":"6745","lat":"-27.6728","lon":"121.628"},{"spatial_id":"2013","spatial_type":"Place","spatial_title":"Griffith, Canberra, Australian Capital Territory, Australia","spatial_roleName":"Content created","spatial_interactionType":"Production","spatial_geo":"-35.3253,149.137","spatial_description":null,"id":"71469","lat":"-35.3253","lon":"149.137"},{"spatial_id":"622","spatial_type":"Place","spatial_title":"Badu Island, Torres Strait, Queensland, Australia","spatial_roleName":null,"spatial_interactionType":"Production","spatial_geo":"-10.1164,142.127","spatial_description":null,"id":"236206","lat":"-10.1164","lon":"142.127"},{"spatial_id":"68","spatial_type":"Place","spatial_title":"Solomon Islands, Oceania","spatial_roleName":"Place made","spatial_interactionType":"Production","spatial_geo":"-9.6456,160.156","spatial_description":null,"id":"78664","lat":"-9.6456","lon":"160.156"},{"spatial_id":"1119","spatial_type":"Place","spatial_title":"Lithgow, New South Wales, Australia","spatial_roleName":"Place of production","spatial_interactionType":"Production","spatial_geo":"-33.47,150.15","spatial_description":"Probably made at this location","id":"149297","lat":"-33.47","lon":"150.15"},{"spatial_id":"642","spatial_type":"Place","spatial_title":"Dunwich, Queensland, Australia","spatial_roleName":"Place made","spatial_interactionType":"Production","spatial_geo":"-27.5,153.4","spatial_description":null,"id":"10349","lat":"-27.5","lon":"153.4"},{"spatial_id":"957","spatial_type":"Place","spatial_title":"Italy","spatial_roleName":"Place made","spatial_interactionType":"Production","spatial_geo":"41.8719,12.5672","spatial_description":null,"id":"58211","lat":"41.8719","lon":"12.5672"},{"spatial_id":"1205","spatial_type":"Place","spatial_title":"Mapoon, Queensland, Australia","spatial_roleName":"Place made","spatial_interactionType":"Production","spatial_geo":"-12.02,141.9","spatial_description":null,"id":"235128","lat":"-12.02","lon":"141.9"},{"spatial_id":"165","spatial_type":"Place","spatial_title":"Balgo, Western Australia, Australia","spatial_roleName":null,"spatial_interactionType":"Production","spatial_geo":"-20.1328,127.987","spatial_description":null,"id":"27329","lat":"-20.1328","lon":"127.987"},{"spatial_id":"1639","spatial_type":"Place","spatial_title":"Port Keats (Wadeye), Northern Territory, Australia","spatial_roleName":null,"spatial_interactionType":"Production","spatial_geo":"-14.12,129.53","spatial_description":null,"id":"18903","lat":"-14.12","lon":"129.53"},{"spatial_id":"1694","spatial_type":"Place","spatial_title":"Ramingining, Central Arnhem Land, Northern Territory, Australia","spatial_roleName":"Place made","spatial_interactionType":"Production","spatial_geo":"-12.32,134.92","spatial_description":null,"id":"6498","lat":"-12.32","lon":"134.92"},{"spatial_id":"113","spatial_type":"Place","spatial_title":"Archer River, Queensland, Australia","spatial_roleName":null,"spatial_interactionType":"Production","spatial_geo":"-13.35,142.6","spatial_description":null,"id":"15971","lat":"-13.35","lon":"142.6"},{"spatial_id":"687","spatial_type":"Place","spatial_title":"Conway, New Hampshire, United States of America","spatial_roleName":"Place made","spatial_interactionType":"Production","spatial_geo":"43.9792,-71.1203","spatial_description":null,"id":"133764","lat":"43.9792","lon":"-71.1203"},{"spatial_id":"1051","spatial_type":"Place","spatial_title":"Kyogle, New South Wales, Australia","spatial_roleName":null,"spatial_interactionType":"Production","spatial_geo":"-28.62,153","spatial_description":null,"id":"46208","lat":"-28.62","lon":"153"},{"spatial_id":"1302","spatial_type":"Place","spatial_title":"Mornington Island, Queensland, Australia","spatial_roleName":null,"spatial_interactionType":"Production","spatial_geo":"-16.55,139.4","spatial_description":null,"id":"46199","lat":"-16.55","lon":"139.4"},{"spatial_id":"760","spatial_type":"Place","spatial_title":"Gamardi Outstation, Northern Territory, Australia","spatial_roleName":"Place created","spatial_interactionType":"Production","spatial_geo":"-12.2742,134.684","spatial_description":null,"id":"147340","lat":"-12.2742","lon":"134.684"},{"spatial_id":"80447","spatial_type":"Place","spatial_title":"West Germany","spatial_roleName":"Place made","spatial_interactionType":"Production","spatial_geo":"51.2561,7.1508","spatial_description":null,"id":"111015","lat":"51.2561","lon":"7.1508"},{"spatial_id":"294","spatial_type":"Place","spatial_title":"Borroloola, Northern Territory, Australia","spatial_roleName":"Place made","spatial_interactionType":"Production","spatial_geo":"-16.07,136.3","spatial_description":null,"id":"6504","lat":"-16.07","lon":"136.3"},{"spatial_id":"3159","spatial_type":"Place","spatial_title":"London, England","spatial_roleName":"Place photographed","spatial_interactionType":"Production","spatial_geo":"51.4942,-0.1739","spatial_description":null,"id":"115857","lat":"51.4942","lon":"-0.1739"},{"spatial_id":"1582","spatial_type":"Place","spatial_title":"Papunya, Central Australia, Northern Territory, Australia","spatial_roleName":"Place of execution","spatial_interactionType":"Production","spatial_geo":"-23.22,131.9","spatial_description":"Ref AAB catalogue card.","id":"45955","lat":"-23.22","lon":"131.9"},{"spatial_id":"1084","spatial_type":"Place","spatial_title":"Lake Tyers, East Gippsland, Victoria, Australia","spatial_roleName":null,"spatial_interactionType":"Production","spatial_geo":"-37.85,148.07","spatial_description":null,"id":"10684","lat":"-37.85","lon":"148.07"},{"spatial_id":"3741","spatial_type":"Place","spatial_title":"Woodend, Victoria, Australia","spatial_roleName":"Place of production","spatial_interactionType":"Production","spatial_geo":"-37.3547,144.529","spatial_description":null,"id":"6985","lat":"-37.3547","lon":"144.529"},{"spatial_id":"1771","spatial_type":"Place","spatial_title":"Sheffield, England","spatial_roleName":"Place made","spatial_interactionType":"Production","spatial_geo":"53.3811,-1.47","spatial_description":null,"id":"61932","lat":"53.3811","lon":"-1.47"},{"spatial_id":"1607","spatial_type":"Place","spatial_title":"Philadelphia, United States of America","spatial_roleName":"Place made","spatial_interactionType":"Production","spatial_geo":"39.9525,-75.1653","spatial_description":null,"id":"124268","lat":"39.9525","lon":"-75.1653"},{"spatial_id":"1676","spatial_type":"Place","spatial_title":"Anson Bay, Northern Territory, Australia","spatial_roleName":"Place designed","spatial_interactionType":"Production","spatial_geo":"-13.32,130.12","spatial_description":null,"id":"12743","lat":"-13.32","lon":"130.12"},{"spatial_id":"2295","spatial_type":"Place","spatial_title":"Gympie, Queensland, Australia","spatial_roleName":"Place of production","spatial_interactionType":"Production","spatial_geo":"-26.18,152.65","spatial_description":null,"id":"214140","lat":"-26.18","lon":"152.65"},{"spatial_id":"2203","spatial_type":"Place","spatial_title":"Exeter, Devon, England, United Kingdom","spatial_roleName":"Place photographed","spatial_interactionType":"Production","spatial_geo":"50.72,-3.52","spatial_description":null,"id":"74849","lat":"50.72","lon":"-3.52"},{"spatial_id":"912","spatial_type":"Place","spatial_title":"Blackstone (Papulankutja Aboriginal community), Western Australia, Australia","spatial_roleName":"Place made","spatial_interactionType":"Production","spatial_geo":"-25.9926,128.285","spatial_description":null,"id":"60854","lat":"-25.9926","lon":"128.285"},{"spatial_id":"5","spatial_type":"Place","spatial_title":"Queanbeyan, New South Wales, Australia","spatial_roleName":"Place made","spatial_interactionType":"Production","spatial_geo":"-35.3549,149.232","spatial_description":"Photographed","id":"136164","lat":"-35.3549","lon":"149.232"},{"spatial_id":"4304","spatial_type":"Place","spatial_title":"Dhupuma College, Nhulunbuy, Northern Territory, Australia","spatial_roleName":"Place created","spatial_interactionType":"Production","spatial_geo":"-12.1825,136.782","spatial_description":null,"id":"43162","lat":"-12.1825","lon":"136.782"},{"spatial_id":"487","spatial_type":"Place","spatial_title":"Merrylands, Sydney, New South Wales, Australia","spatial_roleName":"Place made","spatial_interactionType":"Production","spatial_geo":"-33.8375,150.992","spatial_description":null,"id":"110912","lat":"-33.8375","lon":"150.992"},{"spatial_id":"168","spatial_type":"Place","spatial_title":"Ballarat, Victoria, Australia","spatial_roleName":"Place made","spatial_interactionType":"Production","spatial_geo":"-37.55,143.85","spatial_description":null,"id":"131465","lat":"-37.55","lon":"143.85"},{"spatial_id":"1876","spatial_type":"Place","spatial_title":"University of Sydney, Sydney, New South Wales, Australia","spatial_roleName":"Place made","spatial_interactionType":"Production","spatial_geo":"-33.9,151.183","spatial_description":null,"id":"30278","lat":"-33.9","lon":"151.183"},{"spatial_id":"719","spatial_type":"Place","spatial_title":"Flinders Ranges, South Australia, Australia","spatial_roleName":null,"spatial_interactionType":"Production","spatial_geo":"-31.3775,138.599","spatial_description":null,"id":"7238","lat":"-31.3775","lon":"138.599"},{"spatial_id":"2161","spatial_type":"Place","spatial_title":"Shanghai, China","spatial_roleName":"Place of issue","spatial_interactionType":"Production","spatial_geo":"31.2303,121.474","spatial_description":null,"id":"56298","lat":"31.2303","lon":"121.474"},{"spatial_id":"1476","spatial_type":"Place","spatial_title":"Nutwood Downs, Northern Territory, Australia","spatial_roleName":"Place made","spatial_interactionType":"Production","spatial_geo":"-15.8,134.13","spatial_description":null,"id":"58983","lat":"-15.8","lon":"134.13"},{"spatial_id":"772","spatial_type":"Place","spatial_title":"Gascoyne, Western Australia, Australia","spatial_roleName":null,"spatial_interactionType":"Production","spatial_geo":"-24.82,114.42","spatial_description":null,"id":"5376","lat":"-24.82","lon":"114.42"},{"spatial_id":"2123","spatial_type":"Place","spatial_title":"Woolgoolga, New South Wales, Australia","spatial_roleName":"Place made","spatial_interactionType":"Production","spatial_geo":"-30.1,153.2","spatial_description":null,"id":"10689","lat":"-30.1","lon":"153.2"},{"spatial_id":"1485","spatial_type":"Place","spatial_title":"North Sydney, Sydney, New South Wales, Australia","spatial_roleName":"Place of issue","spatial_interactionType":"Production","spatial_geo":"-33.839,151.207","spatial_description":null,"id":"57963","lat":"-33.839","lon":"151.207"},{"spatial_id":"1413","spatial_type":"Place","spatial_title":"Narrandera, New South Wales, Australia","spatial_roleName":"Place printed","spatial_interactionType":"Production","spatial_geo":"-34.73,146.55","spatial_description":null,"id":"140148","lat":"-34.73","lon":"146.55"},{"spatial_id":"2659","spatial_type":"Place","spatial_title":"Wilmington, Flinders Ranges, South Australia, Australia","spatial_roleName":"Place of issue","spatial_interactionType":"Production","spatial_geo":"-32.6487,138.1","spatial_description":null,"id":"110664","lat":"-32.6487","lon":"138.1"},{"spatial_id":"3593","spatial_type":"Place","spatial_title":"Carlsruhe, Victoria, Australia","spatial_roleName":"Place of production","spatial_interactionType":"Production","spatial_geo":"-37.2844,144.507","spatial_description":null,"id":"6981","lat":"-37.2844","lon":"144.507"},{"spatial_id":"1154","spatial_type":"Place","spatial_title":"Mackay, Queensland, Australia","spatial_roleName":"Place of publication","spatial_interactionType":"Production","spatial_geo":"-21.13,149.18","spatial_description":null,"id":"59045","lat":"-21.13","lon":"149.18"},{"spatial_id":"2566","spatial_type":"Place","spatial_title":"Warraber Island, Torres Strait, Queensland, Australia","spatial_roleName":"Place made","spatial_interactionType":"Production","spatial_geo":"-10.4167,142.167","spatial_description":null,"id":"146266","lat":"-10.4167","lon":"142.167"},{"spatial_id":"80135","spatial_type":"Place","spatial_title":"Japan","spatial_roleName":"Place made","spatial_interactionType":"Production","spatial_geo":"36.2047,138.253","spatial_description":null,"id":"113793","lat":"36.2047","lon":"138.253"},{"spatial_id":"655","spatial_type":"Place","spatial_title":"East Melbourne, Melbourne, Victoria, Australia","spatial_roleName":"Place made","spatial_interactionType":"Production","spatial_geo":"-37.8,144.98","spatial_description":null,"id":"71422","lat":"-37.8","lon":"144.98"},{"spatial_id":"1201","spatial_type":"Place","spatial_title":"Mansfield Park, Adelaide, South Australia, Australia","spatial_roleName":"Place made","spatial_interactionType":"Production","spatial_geo":"-34.85,138.55","spatial_description":null,"id":"43906","lat":"-34.85","lon":"138.55"},{"spatial_id":"80014","spatial_type":"Place","spatial_title":"Cambridge Gulf, Western Australia, Australia","spatial_roleName":null,"spatial_interactionType":"Production","spatial_geo":"-15.67,128.75","spatial_description":null,"id":"66569","lat":"-15.67","lon":"128.75"},{"spatial_id":"1575","spatial_type":"Place","spatial_title":"Palm Island, Queensland, Australia","spatial_roleName":"Place made","spatial_interactionType":"Production","spatial_geo":"-18.7,146.55","spatial_description":null,"id":"119139","lat":"-18.7","lon":"146.55"},{"spatial_id":"918","spatial_type":"Place","spatial_title":"Holroyd River, Queensland, Australia","spatial_roleName":null,"spatial_interactionType":"Production","spatial_geo":"-14.2,141.633","spatial_description":null,"id":"17080","lat":"-14.2","lon":"141.633"},{"spatial_id":"875","spatial_type":"Place","spatial_title":"Buffalo River, Victoria, Australia","spatial_roleName":"Place of issue","spatial_interactionType":"Production","spatial_geo":"-36.8565,146.682","spatial_description":null,"id":"112137","lat":"-36.8565","lon":"146.682"},{"spatial_id":"1838","spatial_type":"Place","spatial_title":"Starke River, Queensland, Australia","spatial_roleName":null,"spatial_interactionType":"Production","spatial_geo":"-14.8167,145.017","spatial_description":null,"id":"63043","lat":"-14.8167","lon":"145.017"},{"spatial_id":"3977","spatial_type":"Place","spatial_title":"Bidyadanga (La Grange), Western Australia, Australia","spatial_roleName":null,"spatial_interactionType":"Production","spatial_geo":"-18.68,121.77","spatial_description":null,"id":"36296","lat":"-18.68","lon":"121.77"},{"spatial_id":"1461","spatial_type":"Place","spatial_title":"Nicholson Homestead, Western Australia, Australia","spatial_roleName":null,"spatial_interactionType":"Production","spatial_geo":"-18.0324,128.896","spatial_description":null,"id":"15340","lat":"-18.0324","lon":"128.896"},{"spatial_id":"1064","spatial_type":"Place","spatial_title":"Lake Alexandrina, South Australia, Australia","spatial_roleName":null,"spatial_interactionType":"Production","spatial_geo":"-35.42,139.12","spatial_description":null,"id":"11374","lat":"-35.42","lon":"139.12"},{"spatial_id":"2348","spatial_type":"Place","spatial_title":"Czech Republic","spatial_roleName":"Place made","spatial_interactionType":"Production","spatial_geo":"49.8175,15.4731","spatial_description":null,"id":"196044","lat":"49.8175","lon":"15.4731"},{"spatial_id":"576","spatial_type":"Place","spatial_title":"Daly River, Northern Territory, Australia","spatial_roleName":null,"spatial_interactionType":"Production","spatial_geo":"-13.3,130.25","spatial_description":null,"id":"16563","lat":"-13.3","lon":"130.25"},{"spatial_id":"1458","spatial_type":"Place","spatial_title":"Nhulunbuy, Gove Peninsula, Northern Territory, Australia","spatial_roleName":"Place created","spatial_interactionType":"Production","spatial_geo":"-12.18,136.77","spatial_description":null,"id":"43512","lat":"-12.18","lon":"136.77"},{"spatial_id":"64","spatial_type":"Place","spatial_title":"Hobart, Hobart, Tasmania, Australia","spatial_roleName":"Place of production","spatial_interactionType":"Production","spatial_geo":"-42.8667,147.317","spatial_description":null,"id":"210817","lat":"-42.8667","lon":"147.317"},{"spatial_id":"927","spatial_type":"Place","spatial_title":"Horsham, Victoria, Australia","spatial_roleName":null,"spatial_interactionType":"Production","spatial_geo":"-36.7,142.2","spatial_description":null,"id":"57470","lat":"-36.7","lon":"142.2"},{"spatial_id":"1873","spatial_type":"Place","spatial_title":"Sydney Island, Queensland, Australia","spatial_roleName":"Place made","spatial_interactionType":"Production","spatial_geo":"-16.6897,139.459","spatial_description":null,"id":"62459","lat":"-16.6897","lon":"139.459"},{"spatial_id":"1918","spatial_type":"Place","spatial_title":"Thursday (Waiben) Island, Torres Strait, Queensland, Australia","spatial_roleName":"Place made","spatial_interactionType":"Production","spatial_geo":"-10.57,142.22","spatial_description":null,"id":"52670","lat":"-10.57","lon":"142.22"},{"spatial_id":"945","spatial_type":"Place","spatial_title":"Indonesia","spatial_roleName":"Place made","spatial_interactionType":"Production","spatial_geo":"-0.7892,113.921","spatial_description":null,"id":"129695","lat":"-0.7892","lon":"113.921"},{"spatial_id":"1304","spatial_type":"Place","spatial_title":"Morobe Province, Papua New Guinea, Oceania","spatial_roleName":"Place made","spatial_interactionType":"Production","spatial_geo":"-6.8014,146.562","spatial_description":"Made in a village located at the base of Kassam Pass, Morobe Province","id":"203088","lat":"-6.8014","lon":"146.562"},{"spatial_id":"1772","spatial_type":"Place","spatial_title":"Gainsborough, Lincolnshire, England","spatial_roleName":"Place made","spatial_interactionType":"Production","spatial_geo":"53.4006,-0.7744","spatial_description":null,"id":"132306","lat":"53.4006","lon":"-0.7744"},{"spatial_id":"3120","spatial_type":"Place","spatial_title":"Saxony, England","spatial_roleName":"Place made","spatial_interactionType":"Production","spatial_geo":"53,-2","spatial_description":null,"id":"122760","lat":"53","lon":"-2"},{"spatial_id":"2064","spatial_type":"Place","spatial_title":"Weipa, Queensland, Australia","spatial_roleName":"Place made","spatial_interactionType":"Production","spatial_geo":"-12.62,141.87","spatial_description":null,"id":"39280","lat":"-12.62","lon":"141.87"},{"spatial_id":"130","spatial_type":"Place","spatial_title":"Java, Indonesia, Asia","spatial_roleName":"Place photographed","spatial_interactionType":"Production","spatial_geo":"-7.6144,110.712","spatial_description":null,"id":"115756","lat":"-7.6144","lon":"110.712"},{"spatial_id":"1434","spatial_type":"Place","spatial_title":"New Norfolk, Tasmania, Australia","spatial_roleName":null,"spatial_interactionType":"Production","spatial_geo":"-42.77,147.05","spatial_description":null,"id":"7435","lat":"-42.77","lon":"147.05"},{"spatial_id":"4137","spatial_type":"Place","spatial_title":"Tunstall, England","spatial_roleName":"Place made","spatial_interactionType":"Production","spatial_geo":"54.3575,-1.6694","spatial_description":null,"id":"195947","lat":"54.3575","lon":"-1.6694"},{"spatial_id":"411","spatial_type":"Place","spatial_title":"Cape Leveque, Western Australia, Australia","spatial_roleName":null,"spatial_interactionType":"Production","spatial_geo":"-16.3997,122.933","spatial_description":null,"id":"16565","lat":"-16.3997","lon":"122.933"},{"spatial_id":"1487","spatial_type":"Place","spatial_title":"North-Eastern Queensland, Queensland, Australia","spatial_roleName":null,"spatial_interactionType":"Production","spatial_geo":"-17.9844,145.305","spatial_description":null,"id":"7185","lat":"-17.9844","lon":"145.305"},{"spatial_id":"2015","spatial_type":"Place","spatial_title":"Wagga Wagga, New South Wales, Australia","spatial_roleName":null,"spatial_interactionType":"Production","spatial_geo":"-35.2,147.583","spatial_description":"Location of tannery","id":"62215","lat":"-35.2","lon":"147.583"},{"spatial_id":"50","spatial_type":"Place","spatial_title":"Coolamon, New South Wales, Australia","spatial_roleName":"Place Made","spatial_interactionType":"Production","spatial_geo":"-34.8167,147.2","spatial_description":"Town situated in the Riverina area of New South Wales","id":"62215","lat":"-34.8167","lon":"147.2"},{"spatial_id":"141","spatial_type":"Place","spatial_title":"Tonga","spatial_roleName":null,"spatial_interactionType":"Production","spatial_geo":"-21.1789,-175.198","spatial_description":null,"id":"232187","lat":"-21.1789","lon":"-175.198"},{"spatial_id":"4573","spatial_type":"Place","spatial_title":"Aurukun State School, Aurukun, Cape York, QLD, Australia","spatial_roleName":"Place created","spatial_interactionType":"Production","spatial_geo":"-13.3536,141.729","spatial_description":null,"id":"43416","lat":"-13.3536","lon":"141.729"},{"spatial_id":"1717","spatial_type":"Place","spatial_title":"Rochester, New York, United States of America","spatial_roleName":"Place made","spatial_interactionType":"Production","spatial_geo":"43.1611,-77.6108","spatial_description":null,"id":"122913","lat":"43.1611","lon":"-77.6108"},{"spatial_id":"39","spatial_type":"Place","spatial_title":"Mangaia Island, Cook Islands","spatial_roleName":"Place made","spatial_interactionType":"Production","spatial_geo":"-21.9353,-157.916","spatial_description":null,"id":"67409","lat":"-21.9353","lon":"-157.916"},{"spatial_id":"591","spatial_type":"Place","spatial_title":"de Grey River, Western Australia, Australia","spatial_roleName":null,"spatial_interactionType":"Production","spatial_geo":"-20.18,119.18","spatial_description":null,"id":"5328","lat":"-20.18","lon":"119.18"},{"spatial_id":"4296","spatial_type":"Place","spatial_title":"St Helens, Tasmania, Australia","spatial_roleName":"Place made","spatial_interactionType":"Production","spatial_geo":"-41.32,148.24","spatial_description":null,"id":"72252","lat":"-41.32","lon":"148.24"},{"spatial_id":"259","spatial_type":"Place","spatial_title":"Blackheath, Blue Mountains, New South Wales, Australia","spatial_roleName":"Place of publication","spatial_interactionType":"Production","spatial_geo":"-33.62,150.28","spatial_description":null,"id":"179821","lat":"-33.62","lon":"150.28"},{"spatial_id":"682","spatial_type":"Place","spatial_title":"Elwood, Melbourne, Victoria, Australia","spatial_roleName":null,"spatial_interactionType":"Production","spatial_geo":"-37.88,144.98","spatial_description":null,"id":"5230","lat":"-37.88","lon":"144.98"},{"spatial_id":"3183","spatial_type":"Place","spatial_title":"Middlesex, England, United Kingdom","spatial_roleName":"Place made","spatial_interactionType":"Production","spatial_geo":"51.5208,-0.4158","spatial_description":null,"id":"37960","lat":"51.5208","lon":"-0.4158"},{"spatial_id":"1911","spatial_type":"Place","spatial_title":"The Rocks, Sydney, New South Wales, Australia","spatial_roleName":"Place of production","spatial_interactionType":"Production","spatial_geo":"-33.42,149.42","spatial_description":null,"id":"154805","lat":"-33.42","lon":"149.42"},{"spatial_id":"4466","spatial_type":"Place","spatial_title":"Yirara College, Alice Springs, Northern Territory, Australia","spatial_roleName":null,"spatial_interactionType":"Production","spatial_geo":"-23.7603,133.87","spatial_description":null,"id":"44631","lat":"-23.7603","lon":"133.87"},{"spatial_id":"924","spatial_type":"Place","spatial_title":"Hopevale Mission, Queensland, Australia","spatial_roleName":null,"spatial_interactionType":"Production","spatial_geo":"-15.2961,145.115","spatial_description":null,"id":"36402","lat":"-15.2961","lon":"145.115"},{"spatial_id":"2007","spatial_type":"Place","spatial_title":"Vienna, Austria","spatial_roleName":"Place designed","spatial_interactionType":"Production","spatial_geo":"48.2081,16.3739","spatial_description":null,"id":"233313","lat":"48.2081","lon":"16.3739"},{"spatial_id":"676","spatial_type":"Place","spatial_title":"London, Cricklewood, England","spatial_roleName":"Place made","spatial_interactionType":"Production","spatial_geo":"51.5556,-0.2139","spatial_description":null,"id":"133626","lat":"51.5556","lon":"-0.2139"},{"spatial_id":"1548","spatial_type":"Place","spatial_title":"Titjikala, Northern Territory, Australia","spatial_roleName":"Place made","spatial_interactionType":"Production","spatial_geo":"-24.6803,134.075","spatial_description":null,"id":"68330","lat":"-24.6803","lon":"134.075"},{"spatial_id":"256","spatial_type":"Place","spatial_title":"Birmingham, West Midlands, England","spatial_roleName":"Place made","spatial_interactionType":"Production","spatial_geo":"52.4861,-1.8903","spatial_description":null,"id":"142504","lat":"52.4861","lon":"-1.8903"},{"spatial_id":"423","spatial_type":"Place","spatial_title":"Carlton, Melbourne, Victoria, Australia","spatial_roleName":"Place made","spatial_interactionType":"Production","spatial_geo":"-37.8001,144.967","spatial_description":"John Malcolm Gillies (JM Gillies), College Crescent, Carlton, Melbourne manufacturer of fishing flies","id":"257159","lat":"-37.8001","lon":"144.967"},{"spatial_id":"255","spatial_type":"Place","spatial_title":"Thailand","spatial_roleName":"Place made","spatial_interactionType":"Production","spatial_geo":"15.87,100.993","spatial_description":null,"id":"58493","lat":"15.87","lon":"100.993"},{"spatial_id":"293","spatial_type":"Place","spatial_title":"Bolkdjam, Central Arnhem Land, Northern Territory, Australia","spatial_roleName":"Place made","spatial_interactionType":"Production","spatial_geo":"-12.4,134.42","spatial_description":null,"id":"20526","lat":"-12.4","lon":"134.42"},{"spatial_id":"781","spatial_type":"Place","spatial_title":"Geelong, Victoria, Australia","spatial_roleName":"Place made","spatial_interactionType":"Production","spatial_geo":"-38.15,144.35","spatial_description":"Attributed","id":"139698","lat":"-38.15","lon":"144.35"},{"spatial_id":"873","spatial_type":"Place","spatial_title":"Guthega, Snowy Mountains, New South Wales, Australia","spatial_roleName":"Place made","spatial_interactionType":"Production","spatial_geo":"-36.37,148.37","spatial_description":null,"id":"126566","lat":"-36.37","lon":"148.37"},{"spatial_id":"201","spatial_type":"Place","spatial_title":"Munyang, Snowy Mountains, New South Wales, Australia","spatial_roleName":"Place made","spatial_interactionType":"Production","spatial_geo":"-36.2153,148.451","spatial_description":null,"id":"126566","lat":"-36.2153","lon":"148.451"},{"spatial_id":"979","spatial_type":"Place","spatial_title":"Ravenshoe, Queensland, Australia","spatial_roleName":"Place made","spatial_interactionType":"Production","spatial_geo":"-17.609,145.484","spatial_description":null,"id":"120266","lat":"-17.609","lon":"145.484"},{"spatial_id":"1432","spatial_type":"Place","spatial_title":"New Jersey, United States of America","spatial_roleName":"Place made","spatial_interactionType":"Production","spatial_geo":"39.6914,-74.6556","spatial_description":null,"id":"131323","lat":"39.6914","lon":"-74.6556"},{"spatial_id":"480","spatial_type":"Place","spatial_title":"Cleland Conservation Park, Mount Lofty Ranges, South Australia, Australia","spatial_roleName":"Place made","spatial_interactionType":"Production","spatial_geo":"-34.9667,138.697","spatial_description":null,"id":"56405","lat":"-34.9667","lon":"138.697"},{"spatial_id":"220","spatial_type":"Place","spatial_title":"Bega, New South Wales, Australia","spatial_roleName":"Place photographed","spatial_interactionType":"Production","spatial_geo":"-36.67,149.9","spatial_description":null,"id":"31592","lat":"-36.67","lon":"149.9"},{"spatial_id":"675","spatial_type":"Place","spatial_title":"Galiwin'ku (Elcho Island), Northern Territory, Australia","spatial_roleName":null,"spatial_interactionType":"Production","spatial_geo":"-11.95,135.73","spatial_description":null,"id":"21058","lat":"-11.95","lon":"135.73"},{"spatial_id":"1137","spatial_type":"Place","spatial_title":"Lorne, Victoria, Australia","spatial_roleName":"Place photographed","spatial_interactionType":"Production","spatial_geo":"-38.53,143.97","spatial_description":null,"id":"116054","lat":"-38.53","lon":"143.97"},{"spatial_id":"1005","spatial_type":"Place","spatial_title":"Kew, Melbourne, Victoria, Australia","spatial_roleName":"Place made","spatial_interactionType":"Production","spatial_geo":"-37.8,145.03","spatial_description":null,"id":"113947","lat":"-37.8","lon":"145.03"},{"spatial_id":"2358","spatial_type":"Place","spatial_title":"Central Australia, Australia","spatial_roleName":null,"spatial_interactionType":"Production","spatial_geo":"-23.8989,133.822","spatial_description":null,"id":"11279","lat":"-23.8989","lon":"133.822"},{"spatial_id":"2325","spatial_type":"Place","spatial_title":"Grong Grong, New South Wales, Australia","spatial_roleName":"Place made","spatial_interactionType":"Production","spatial_geo":"-34.7367,146.782","spatial_description":"On a farm called 'Baden' near Grong Grong","id":"137202","lat":"-34.7367","lon":"146.782"},{"spatial_id":"1832","spatial_type":"Place","spatial_title":"Saint Kilda, Melbourne, Victoria, Australia","spatial_roleName":"Place made","spatial_interactionType":"Production","spatial_geo":"-37.85,144.97","spatial_description":null,"id":"112138","lat":"-37.85","lon":"144.97"},{"spatial_id":"813","spatial_type":"Place","spatial_title":"Goulburn Islands, Northern Territory, Australia","spatial_roleName":null,"spatial_interactionType":"Production","spatial_geo":"-11.55,133.45","spatial_description":null,"id":"18947","lat":"-11.55","lon":"133.45"},{"spatial_id":"2202","spatial_type":"Place","spatial_title":"Camden Park, New South Wales, Australia","spatial_roleName":"Place made","spatial_interactionType":"Production","spatial_geo":"-34.0833,150.717","spatial_description":null,"id":"38693","lat":"-34.0833","lon":"150.717"},{"spatial_id":"1369","spatial_type":"Place","spatial_title":"Murray (Mer) Island, Torres Strait, Queensland, Australia","spatial_roleName":"Place made","spatial_interactionType":"Production","spatial_geo":"-9.9,144.05","spatial_description":null,"id":"52728","lat":"-9.9","lon":"144.05"},{"spatial_id":"153","spatial_type":"Place","spatial_title":"Benalla, Victoria, Australia","spatial_roleName":"Place photographed","spatial_interactionType":"Production","spatial_geo":"-36.55,146.02","spatial_description":null,"id":"60469","lat":"-36.55","lon":"146.02"},{"spatial_id":"1288","spatial_type":"Place","spatial_title":"Montreal, Canada","spatial_roleName":null,"spatial_interactionType":"Production","spatial_geo":"45.5017,-73.5672","spatial_description":null,"id":"143767","lat":"45.5017","lon":"-73.5672"},{"spatial_id":"1479","spatial_type":"Place","spatial_title":"North Fitzroy, Melbourne, Victoria, Australia","spatial_roleName":null,"spatial_interactionType":"Production","spatial_geo":"-37.7886,144.979","spatial_description":null,"id":"34929","lat":"-37.7886","lon":"144.979"},{"spatial_id":"147","spatial_type":"Place","spatial_title":"Austria","spatial_roleName":"Place printed","spatial_interactionType":"Production","spatial_geo":"47.5161,14.55","spatial_description":null,"id":"144940","lat":"47.5161","lon":"14.55"},{"spatial_id":"80133","spatial_type":"Place","spatial_title":"Hong Kong","spatial_roleName":"Place created","spatial_interactionType":"Production","spatial_geo":"22.3964,114.109","spatial_description":null,"id":"252948","lat":"22.3964","lon":"114.109"},{"spatial_id":"525","spatial_type":"Place","spatial_title":"Cooper Creek, South Australia, Australia","spatial_roleName":null,"spatial_interactionType":"Production","spatial_geo":"-28.3833,137.683","spatial_description":null,"id":"62800","lat":"-28.3833","lon":"137.683"},{"spatial_id":"420","spatial_type":"Place","spatial_title":"Cape York Peninsula, Queensland, Australia","spatial_roleName":null,"spatial_interactionType":"Production","spatial_geo":"-15,143","spatial_description":null,"id":"17139","lat":"-15","lon":"143"},{"spatial_id":"2090","spatial_type":"Place","spatial_title":"Western NSW, New South Wales, Australia","spatial_roleName":null,"spatial_interactionType":"Production","spatial_geo":"-31.9481,142.617","spatial_description":null,"id":"5375","lat":"-31.9481","lon":"142.617"},{"spatial_id":"1835","spatial_type":"Place","spatial_title":"Moa Island, St Paul\u2019s, Torres Strait, Queensland, Australia","spatial_roleName":"Place made","spatial_interactionType":"Production","spatial_geo":"-10.1831,142.265","spatial_description":null,"id":"52729","lat":"-10.1831","lon":"142.265"},{"spatial_id":"3226","spatial_type":"Place","spatial_title":"Scotland","spatial_roleName":"Place photographed","spatial_interactionType":"Production","spatial_geo":"56.4906,-4.2025","spatial_description":"Isle of Arran, off the west coast","id":"75146","lat":"56.4906","lon":"-4.2025"},{"spatial_id":"4214","spatial_type":"Place","spatial_title":"Marrkolidjban, Arnhem Land, Northern Territory, Australia","spatial_roleName":"Place created","spatial_interactionType":"Production","spatial_geo":"-12.55,134.27","spatial_description":null,"id":"146851","lat":"-12.55","lon":"134.27"},{"spatial_id":"586","spatial_type":"Place","spatial_title":"Narridy, South Australia, Australia","spatial_roleName":"Place made","spatial_interactionType":"Production","spatial_geo":"-33.4256,138.305","spatial_description":null,"id":"125732","lat":"-33.4256","lon":"138.305"},{"spatial_id":"80127","spatial_type":"Place","spatial_title":"Fremantle, Perth, Western Australia, Australia","spatial_roleName":null,"spatial_interactionType":"Production","spatial_geo":"-32.0569,115.744","spatial_description":null,"id":"46349","lat":"-32.0569","lon":"115.744"},{"spatial_id":"204","spatial_type":"Place","spatial_title":"Torino, Italy","spatial_roleName":"Place made","spatial_interactionType":"Production","spatial_geo":"45.1333,7.36667","spatial_description":null,"id":"38607","lat":"45.1333","lon":"7.36667"},{"spatial_id":"703","spatial_type":"Place","spatial_title":"Europe","spatial_roleName":"Place made","spatial_interactionType":"Production","spatial_geo":"48.691,9.14062","spatial_description":"Printed in Prague","id":"129116","lat":"48.691","lon":"9.14062"},{"spatial_id":"2667","spatial_type":"Place","spatial_title":"Enfield, Adelaide, South Australia, Australia","spatial_roleName":"Place of issue","spatial_interactionType":"Production","spatial_geo":"-34.8493,138.601","spatial_description":null,"id":"110660","lat":"-34.8493","lon":"138.601"},{"spatial_id":"44","spatial_type":"Place","spatial_title":"Cook Islands","spatial_roleName":"Place made","spatial_interactionType":"Production","spatial_geo":"-21.2367,-159.778","spatial_description":null,"id":"67395","lat":"-21.2367","lon":"-159.778"},{"spatial_id":"80126","spatial_type":"Place","spatial_title":"France","spatial_roleName":"Place made","spatial_interactionType":"Production","spatial_geo":"46.5592,2.2742","spatial_description":null,"id":"133629","lat":"46.5592","lon":"2.2742"},{"spatial_id":"223","spatial_type":"Place","spatial_title":"Belgium","spatial_roleName":"Place made","spatial_interactionType":"Production","spatial_geo":"50.5039,4.47","spatial_description":null,"id":"229670","lat":"50.5039","lon":"4.47"},{"spatial_id":"699","spatial_type":"Place","spatial_title":"Eucla, Western Australia, Australia","spatial_roleName":null,"spatial_interactionType":"Production","spatial_geo":"-31.67,128.88","spatial_description":null,"id":"11033","lat":"-31.67","lon":"128.88"},{"spatial_id":"1774","spatial_type":"Place","spatial_title":"Shepparton, Goulburn Valley, Victoria, Australia","spatial_roleName":"Place made","spatial_interactionType":"Production","spatial_geo":"-36.37,145.4","spatial_description":null,"id":"60369","lat":"-36.37","lon":"145.4"},{"spatial_id":"1186","spatial_type":"Place","spatial_title":"Manchester, England","spatial_roleName":"Place made","spatial_interactionType":"Production","spatial_geo":"53.4808,-2.2425","spatial_description":"The sewing machine was made at the Guide Bridge Factory","id":"119577","lat":"53.4808","lon":"-2.2425"},{"spatial_id":"1620","spatial_type":"Place","spatial_title":"Pipalytjara, South Australia, Australia","spatial_roleName":null,"spatial_interactionType":"Production","spatial_geo":"-26.166,129.172","spatial_description":null,"id":"51595","lat":"-26.166","lon":"129.172"},{"spatial_id":"4284","spatial_type":"Place","spatial_title":"France","spatial_roleName":"Place written","spatial_interactionType":"Production","spatial_geo":"44.5569,4.7494","spatial_description":null,"id":"134210","lat":"44.5569","lon":"4.7494"},{"spatial_id":"1200","spatial_type":"Place","spatial_title":"Manmoyih, Arnhem Land, Northern Territory, Australia","spatial_roleName":"Place made","spatial_interactionType":"Production","spatial_geo":"-12.5444,134.114","spatial_description":"Manmoyih Outstation","id":"46642","lat":"-12.5444","lon":"134.114"},{"spatial_id":"234","spatial_type":"Place","spatial_title":"Bentinck Island, Queensland, Australia","spatial_roleName":null,"spatial_interactionType":"Production","spatial_geo":"-17.07,139.5","spatial_description":null,"id":"36108","lat":"-17.07","lon":"139.5"},{"spatial_id":"80175","spatial_type":"Place","spatial_title":"New Zealand","spatial_roleName":"Place made","spatial_interactionType":"Production","spatial_geo":"-40.9006,174.886","spatial_description":"Possibly","id":"56549","lat":"-40.9006","lon":"174.886"},{"spatial_id":"176","spatial_type":"Place","spatial_title":"Barunga, Northern Territory, Australia","spatial_roleName":"Place created","spatial_interactionType":"Production","spatial_geo":"-14.52,132.87","spatial_description":null,"id":"19145","lat":"-14.52","lon":"132.87"},{"spatial_id":"2528","spatial_type":"Place","spatial_title":"Alexandria, Sydney, New South Wales, Australia","spatial_roleName":"Place photographed","spatial_interactionType":"Production","spatial_geo":"-33.9,151.18","spatial_description":null,"id":"38504","lat":"-33.9","lon":"151.18"},{"spatial_id":"4245","spatial_type":"Place","spatial_title":"Sydney, New South Wales, Australia","spatial_roleName":"Place photographed","spatial_interactionType":"Production","spatial_geo":"-33.8689,151.209","spatial_description":null,"id":"75142","lat":"-33.8689","lon":"151.209"},{"spatial_id":"303","spatial_type":"Place","spatial_title":"Berridale, New South Wales, Australia","spatial_roleName":"Place of issue","spatial_interactionType":"Production","spatial_geo":"-36.2,148.82","spatial_description":null,"id":"61937","lat":"-36.2","lon":"148.82"},{"spatial_id":"1576","spatial_type":"Place","spatial_title":"Palmer River, Queensland, Australia","spatial_roleName":null,"spatial_interactionType":"Production","spatial_geo":"-16.07,142.72","spatial_description":null,"id":"10446","lat":"-16.07","lon":"142.72"},{"spatial_id":"2143","spatial_type":"Place","spatial_title":"Yalata, South Australia, Australia","spatial_roleName":null,"spatial_interactionType":"Production","spatial_geo":"-31.3827,131.622","spatial_description":null,"id":"5175","lat":"-31.3827","lon":"131.622"},{"spatial_id":"604","spatial_type":"Place","spatial_title":"Derby, Western Australia, Australia","spatial_roleName":"Place photographed","spatial_interactionType":"Production","spatial_geo":"-17.38,123.67","spatial_description":null,"id":"132294","lat":"-17.38","lon":"123.67"},{"spatial_id":"3742","spatial_type":"Place","spatial_title":"Woodend North, Victoria, Australia","spatial_roleName":"Place of production","spatial_interactionType":"Production","spatial_geo":"-37.3238,144.525","spatial_description":null,"id":"6982","lat":"-37.3238","lon":"144.525"},{"spatial_id":"2070","spatial_type":"Place","spatial_title":"Wenlock River, Queensland, Australia","spatial_roleName":null,"spatial_interactionType":"Production","spatial_geo":"-12.05,141.92","spatial_description":null,"id":"10682","lat":"-12.05","lon":"141.92"},{"spatial_id":"723","spatial_type":"Place","spatial_title":"Forrest River, Western Australia, Australia","spatial_roleName":null,"spatial_interactionType":"Production","spatial_geo":"-15.3,128.07","spatial_description":null,"id":"15481","lat":"-15.3","lon":"128.07"},{"spatial_id":"1517","spatial_type":"Place","spatial_title":"Moa Island, Kubin, Torres Strait, Queensland, Australia","spatial_roleName":"Place of publication","spatial_interactionType":"Production","spatial_geo":"-10.1883,142.264","spatial_description":null,"id":"60366","lat":"-10.1883","lon":"142.264"},{"spatial_id":"80298","spatial_type":"Place","spatial_title":"Philippines","spatial_roleName":"Place made","spatial_interactionType":"Production","spatial_geo":"12.8797,121.774","spatial_description":"Mr Nguyen made this instrument in a refugee camp in the Philippines in 1982 and modified it in Australia in 1984","id":"40761","lat":"12.8797","lon":"121.774"},{"spatial_id":"192","spatial_type":"Place","spatial_title":"Jindabyne, New South Wales, Australia","spatial_roleName":"Place made","spatial_interactionType":"Production","spatial_geo":"-36.4186,148.62","spatial_description":null,"id":"61934","lat":"-36.4186","lon":"148.62"},{"spatial_id":"1123","spatial_type":"Place","spatial_title":"Liverpool River, Arnhem Land, Northern Territory, Australia","spatial_roleName":"Place made","spatial_interactionType":"Production","spatial_geo":"-12.03,134.2","spatial_description":"Manbulgardi","id":"20079","lat":"-12.03","lon":"134.2"},{"spatial_id":"1969","spatial_type":"Place","spatial_title":"Umbakumba, Groote Eylandt, Northern Territory, Australia","spatial_roleName":null,"spatial_interactionType":"Production","spatial_geo":"-13.85,136.8","spatial_description":null,"id":"19388","lat":"-13.85","lon":"136.8"},{"spatial_id":"718","spatial_type":"Place","spatial_title":"Flemington, Melbourne, Victoria, Australia","spatial_roleName":"Place made","spatial_interactionType":"Production","spatial_geo":"-37.78,144.93","spatial_description":null,"id":"79654","lat":"-37.78","lon":"144.93"},{"spatial_id":"1189","spatial_type":"Place","spatial_title":"Arncliffe, Sydney, New South Wales, Australia","spatial_roleName":"Place printed","spatial_interactionType":"Production","spatial_geo":"-33.93,151.15","spatial_description":null,"id":"113413","lat":"-33.93","lon":"151.15"},{"spatial_id":"1506","spatial_type":"Place","spatial_title":"Northern Australia, Australia","spatial_roleName":null,"spatial_interactionType":"Production","spatial_geo":"-16.5333,133.469","spatial_description":null,"id":"18021","lat":"-16.5333","lon":"133.469"},{"spatial_id":"304","spatial_type":"Place","spatial_title":"Utopia, Northern Territory, Australia","spatial_roleName":"Place of production","spatial_interactionType":"Production","spatial_geo":"-22.22,143.55","spatial_description":null,"id":"180160","lat":"-22.22","lon":"143.55"},{"spatial_id":"1683","spatial_type":"Place","spatial_title":"Pyrmont, Sydney, New South Wales, Australia","spatial_roleName":"Place made","spatial_interactionType":"Production","spatial_geo":"-33.85,151.18","spatial_description":null,"id":"58702","lat":"-33.85","lon":"151.18"},{"spatial_id":"1577","spatial_type":"Place","spatial_title":"Terrey Hills, Sydney, New South Wales, Australia","spatial_roleName":"Place of publication","spatial_interactionType":"Production","spatial_geo":"-33.6831,151.223","spatial_description":null,"id":"60999","lat":"-33.6831","lon":"151.223"},{"spatial_id":"1867","spatial_type":"Place","spatial_title":"Switzerland","spatial_roleName":"Content created","spatial_interactionType":"Production","spatial_geo":"46.7972,8.0931","spatial_description":"Berlinger & Co.","id":"230429","lat":"46.7972","lon":"8.0931"},{"spatial_id":"638","spatial_type":"Place","spatial_title":"Dublin, County Dublin, Ireland","spatial_roleName":null,"spatial_interactionType":"Production","spatial_geo":"53.3497,-6.2603","spatial_description":null,"id":"206210","lat":"53.3497","lon":"-6.2603"},{"spatial_id":"488","spatial_type":"Place","spatial_title":"Cloncurry, Queensland, Australia","spatial_roleName":null,"spatial_interactionType":"Production","spatial_geo":"-20.5,140.4","spatial_description":null,"id":"21298","lat":"-20.5","lon":"140.4"},{"spatial_id":"1801","spatial_type":"Place","spatial_title":"South Coast, New South Wales, Australia","spatial_roleName":null,"spatial_interactionType":"Production","spatial_geo":"-36.1783,150.081","spatial_description":null,"id":"19144","lat":"-36.1783","lon":"150.081"},{"spatial_id":"751","spatial_type":"Place","spatial_title":"Galeri, Northern Territory, Australia","spatial_roleName":"Place made","spatial_interactionType":"Production","spatial_geo":"-16.1497,131.867","spatial_description":null,"id":"6503","lat":"-16.1497","lon":"131.867"},{"spatial_id":"1257","spatial_type":"Place","spatial_title":"Milan, Italy","spatial_roleName":"Place of issue","spatial_interactionType":"Production","spatial_geo":"45.4653,9.1858","spatial_description":null,"id":"229671","lat":"45.4653","lon":"9.1858"},{"spatial_id":"80066","spatial_type":"Place","spatial_title":"Musgrave Ranges, South Australia, Australia","spatial_roleName":"Place designed","spatial_interactionType":"Production","spatial_geo":"-26.3,131.87","spatial_description":null,"id":"13180","lat":"-26.3","lon":"131.87"},{"spatial_id":"66","spatial_type":"Place","spatial_title":"Fiji","spatial_roleName":"Place made","spatial_interactionType":"Production","spatial_geo":"-17.7133,178.065","spatial_description":null,"id":"67397","lat":"-17.7133","lon":"178.065"},{"spatial_id":"625","spatial_type":"Place","spatial_title":"Teryawynia Homestead, New South Wales, Australia","spatial_roleName":"Place made","spatial_interactionType":"Production","spatial_geo":"-32.1313,143.259","spatial_description":null,"id":"21593","lat":"-32.1313","lon":"143.259"},{"spatial_id":"2107","spatial_type":"Place","spatial_title":"Wimmera, Victoria, Australia","spatial_roleName":null,"spatial_interactionType":"Production","spatial_geo":"-36.67,142.25","spatial_description":null,"id":"17963","lat":"-36.67","lon":"142.25"},{"spatial_id":"545","spatial_type":"Place","spatial_title":"Old Adaminaby, New South Wales, Australia","spatial_roleName":"Place created","spatial_interactionType":"Production","spatial_geo":"-36.0267,148.714","spatial_description":"Yen's Mercers","id":"221595","lat":"-36.0267","lon":"148.714"},{"spatial_id":"1791","spatial_type":"Place","spatial_title":"Snowy Mountains, New South Wales, Australia","spatial_roleName":"Place made","spatial_interactionType":"Production","spatial_geo":"-36.32,148.25","spatial_description":null,"id":"62212","lat":"-36.32","lon":"148.25"},{"spatial_id":"80302","spatial_type":"Place","spatial_title":"Queensland, Australia","spatial_roleName":"Place made","spatial_interactionType":"Production","spatial_geo":"-20.9175,142.703","spatial_description":null,"id":"10390","lat":"-20.9175","lon":"142.703"},{"spatial_id":"2299","spatial_type":"Place","spatial_title":"Tongala, Victoria, Australia","spatial_roleName":"Place made","spatial_interactionType":"Production","spatial_geo":"-36.25,144.95","spatial_description":null,"id":"68629","lat":"-36.25","lon":"144.95"},{"spatial_id":"1150","spatial_type":"Place","spatial_title":"Macdonnell Ranges, Northern Territory, Australia","spatial_roleName":null,"spatial_interactionType":"Production","spatial_geo":"-23.7,132.5","spatial_description":null,"id":"10880","lat":"-23.7","lon":"132.5"},{"spatial_id":"4251","spatial_type":"Place","spatial_title":"Oenpelli Hill, Western Arnhem Land, Northern Territory, Australia","spatial_roleName":null,"spatial_interactionType":"Production","spatial_geo":"-12.3339,133.065","spatial_description":null,"id":"145871","lat":"-12.3339","lon":"133.065"},{"spatial_id":"2560","spatial_type":"Place","spatial_title":"Sydney, New South Wales, Australia","spatial_roleName":"Place photographed","spatial_interactionType":"Production","spatial_geo":"-35.6089,149.341","spatial_description":null,"id":"74900","lat":"-35.6089","lon":"149.341"},{"spatial_id":"1808","spatial_type":"Place","spatial_title":"South West Queensland, Queensland, Australia","spatial_roleName":null,"spatial_interactionType":"Production","spatial_geo":"-27.8086,141.665","spatial_description":null,"id":"5279","lat":"-27.8086","lon":"141.665"},{"spatial_id":"1727","spatial_type":"Place","spatial_title":"Roebuck Bay, Western Australia, Australia","spatial_roleName":null,"spatial_interactionType":"Production","spatial_geo":"-18.08,122.28","spatial_description":null,"id":"10786","lat":"-18.08","lon":"122.28"},{"spatial_id":"1440","spatial_type":"Place","spatial_title":"Newark, New Jersey, United States of America","spatial_roleName":null,"spatial_interactionType":"Production","spatial_geo":"40.7356,-74.1722","spatial_description":null,"id":"130639","lat":"40.7356","lon":"-74.1722"},{"spatial_id":"1812","spatial_type":"Place","spatial_title":"South-eastern South Australia, South Australia, Australia","spatial_roleName":"Place made","spatial_interactionType":"Production","spatial_geo":"-32.305,138.882","spatial_description":null,"id":"19970","lat":"-32.305","lon":"138.882"},{"spatial_id":"2223","spatial_type":"Place","spatial_title":"Meekatharra, Western Australia, Australia","spatial_roleName":"Place made","spatial_interactionType":"Production","spatial_geo":"-26.5936,118.495","spatial_description":null,"id":"72741","lat":"-26.5936","lon":"118.495"},{"spatial_id":"2516","spatial_type":"Place","spatial_title":"Leigh Creek, Flinder Ranges, South Australia, Australia","spatial_roleName":"Place made","spatial_interactionType":"Production","spatial_geo":"-30.5933,138.4","spatial_description":null,"id":"74217","lat":"-30.5933","lon":"138.4"},{"spatial_id":"101","spatial_type":"Place","spatial_title":"Amsterdam, The Netherlands","spatial_roleName":"Place of publication","spatial_interactionType":"Production","spatial_geo":"52.3703,4.8953","spatial_description":null,"id":"229181","lat":"52.3703","lon":"4.8953"},{"spatial_id":"3951","spatial_type":"Place","spatial_title":"Santa Cruz Islands, Temotu Province, Solomon Islands, Oceania","spatial_roleName":"Place made","spatial_interactionType":"Production","spatial_geo":"-10.7244,165.923","spatial_description":null,"id":"125148","lat":"-10.7244","lon":"165.923"},{"spatial_id":"1926","spatial_type":"Place","spatial_title":"Tomerong, New South Wales, Australia","spatial_roleName":null,"spatial_interactionType":"Production","spatial_geo":"-35.05,150.57","spatial_description":"Place collected","id":"19140","lat":"-35.05","lon":"150.57"},{"spatial_id":"1752","spatial_type":"Place","spatial_title":"Saibai Island, Torres Strait, Queensland, Australia","spatial_roleName":"Place made","spatial_interactionType":"Production","spatial_geo":"-9.4,142.68","spatial_description":null,"id":"60811","lat":"-9.4","lon":"142.68"},{"spatial_id":"1223","spatial_type":"Place","spatial_title":"Massachusetts, United States of America","spatial_roleName":"Place made","spatial_interactionType":"Production","spatial_geo":"42.4072,-71.3825","spatial_description":null,"id":"223020","lat":"42.4072","lon":"-71.3825"},{"spatial_id":"2830","spatial_type":"Place","spatial_title":"Royal Botanic Gardens, Sydney, Sydney, New South Wales, Australia","spatial_roleName":"Place photographed","spatial_interactionType":"Production","spatial_geo":"-33.8639,151.217","spatial_description":null,"id":"116092","lat":"-33.8639","lon":"151.217"},{"spatial_id":"1800","spatial_type":"Place","spatial_title":"South Caulfield, Melbourne, Victoria, Australia","spatial_roleName":"Place photographed","spatial_interactionType":"Production","spatial_geo":"-37.8956,145.026","spatial_description":null,"id":"4054","lat":"-37.8956","lon":"145.026"},{"spatial_id":"4558","spatial_type":"Place","spatial_title":"Piccadilly, London, England","spatial_roleName":"Place made","spatial_interactionType":"Production","spatial_geo":"52.435,-1.6772","spatial_description":"Ogden Smiths, 62 St James St, Piccadfilly, London England","id":"257158","lat":"52.435","lon":"-1.6772"},{"spatial_id":"1820","spatial_type":"Place","spatial_title":"London, England","spatial_roleName":null,"spatial_interactionType":"Production","spatial_geo":"51.5072,-0.1278","spatial_description":null,"id":"135282","lat":"51.5072","lon":"-0.1278"},{"spatial_id":"1657","spatial_type":"Place","spatial_title":"Port Pirie, South Australia, Australia","spatial_roleName":null,"spatial_interactionType":"Production","spatial_geo":"-33.18,137.98","spatial_description":null,"id":"56290","lat":"-33.18","lon":"137.98"},{"spatial_id":"804","spatial_type":"Place","spatial_title":"Gongolgon, New South Wales, Australia","spatial_roleName":null,"spatial_interactionType":"Production","spatial_geo":"-30.35,146.92","spatial_description":null,"id":"51398","lat":"-30.35","lon":"146.92"},{"spatial_id":"2092","spatial_type":"Place","spatial_title":"Western Victoria, Victoria, Australia","spatial_roleName":null,"spatial_interactionType":"Production","spatial_geo":"-36.6158,142.097","spatial_description":null,"id":"6604","lat":"-36.6158","lon":"142.097"},{"spatial_id":"991","spatial_type":"Place","spatial_title":"Fyshwick, Canberra, Australian Capital Territory, Australia","spatial_roleName":"Place made","spatial_interactionType":"Production","spatial_geo":"-35.3289,149.174","spatial_description":null,"id":"41741","lat":"-35.3289","lon":"149.174"},{"spatial_id":"1955","spatial_type":"Place","spatial_title":"Tumut, New South Wales, Australia","spatial_roleName":"Place photographed","spatial_interactionType":"Production","spatial_geo":"-35.3,148.22","spatial_description":null,"id":"116096","lat":"-35.3","lon":"148.22"},{"spatial_id":"2220","spatial_type":"Place","spatial_title":"Hobart, Tasmania, Australia","spatial_roleName":"Place made","spatial_interactionType":"Production","spatial_geo":"-42.8167,147.317","spatial_description":null,"id":"195793","lat":"-42.8167","lon":"147.317"},{"spatial_id":"505","spatial_type":"Place","spatial_title":"Colombo, Western Province, Sri Lanka","spatial_roleName":"Place photographed","spatial_interactionType":"Production","spatial_geo":"6.9269,79.8611","spatial_description":null,"id":"115754","lat":"6.9269","lon":"79.8611"},{"spatial_id":"653","spatial_type":"Place","spatial_title":"East Kimberley, Western Australia, Australia","spatial_roleName":"Place made","spatial_interactionType":"Production","spatial_geo":"-15.7727,128.74","spatial_description":null,"id":"15347","lat":"-15.7727","lon":"128.74"},{"spatial_id":"466","spatial_type":"Place","spatial_title":"Christchurch, New Zealand","spatial_roleName":"Place photographed","spatial_interactionType":"Production","spatial_geo":"-43.5319,172.636","spatial_description":null,"id":"116094","lat":"-43.5319","lon":"172.636"},{"spatial_id":"515","spatial_type":"Place","spatial_title":"Connecticut, United States of America","spatial_roleName":"Place of production","spatial_interactionType":"Production","spatial_geo":"41.6031,-73.0878","spatial_description":"Place manufactured","id":"229771","lat":"41.6031","lon":"-73.0878"},{"spatial_id":"1236","spatial_type":"Place","spatial_title":"Sydney, New South Wales, Australia","spatial_roleName":"Place photographed","spatial_interactionType":"Production","spatial_geo":"-35.4678,146.615","spatial_description":null,"id":"74895","lat":"-35.4678","lon":"146.615"},{"spatial_id":"386","spatial_type":"Place","spatial_title":"Cabbage Tree, New South Wales, Australia","spatial_roleName":null,"spatial_interactionType":"Production","spatial_geo":"-35,150.77","spatial_description":null,"id":"42081","lat":"-35","lon":"150.77"},{"spatial_id":"489","spatial_type":"Place","spatial_title":"Gammon Ranges, South Australia, Australia","spatial_roleName":"Place made","spatial_interactionType":"Production","spatial_geo":"-30.4358,139.105","spatial_description":null,"id":"139749","lat":"-30.4358","lon":"139.105"},{"spatial_id":"1480","spatial_type":"Place","spatial_title":"Yambah, Northern Territory, Australia","spatial_roleName":"Place made","spatial_interactionType":"Production","spatial_geo":"-23.1267,133.834","spatial_description":null,"id":"58988","lat":"-23.1267","lon":"133.834"},{"spatial_id":"3705","spatial_type":"Place","spatial_title":"Seaspray, Victoria, Australia","spatial_roleName":"Place of production","spatial_interactionType":"Production","spatial_geo":"-38.3761,147.191","spatial_description":null,"id":"6988","lat":"-38.3761","lon":"147.191"},{"spatial_id":"1665","spatial_type":"Place","spatial_title":"Mukden, Liaoning, China","spatial_roleName":"Place photographed","spatial_interactionType":"Production","spatial_geo":"41.8056,123.431","spatial_description":null,"id":"114674","lat":"41.8056","lon":"123.431"},{"spatial_id":"2292","spatial_type":"Place","spatial_title":"Natimuk, Victoria, Australia","spatial_roleName":"Place made","spatial_interactionType":"Production","spatial_geo":"-36.73,141.93","spatial_description":null,"id":"119820","lat":"-36.73","lon":"141.93"},{"spatial_id":"1580","spatial_type":"Place","spatial_title":"Canterbury, Sydney, New South Wales, Australia","spatial_roleName":"Place of issue","spatial_interactionType":"Production","spatial_geo":"-33.92,151.12","spatial_description":null,"id":"61938","lat":"-33.92","lon":"151.12"},{"spatial_id":"1763","spatial_type":"Place","spatial_title":"Santa Barbara, California, United States of America","spatial_roleName":"Place made","spatial_interactionType":"Production","spatial_geo":"34.4208,-119.698","spatial_description":null,"id":"125582","lat":"34.4208","lon":"-119.698"},{"spatial_id":"2904","spatial_type":"Place","spatial_title":"Sunshine, Melbourne, Victoria, Australia","spatial_roleName":"Place of production","spatial_interactionType":"Production","spatial_geo":"-37.7833,144.833","spatial_description":null,"id":"227426","lat":"-37.7833","lon":"144.833"},{"spatial_id":"196","spatial_type":"Place","spatial_title":"Barwon River, New South Wales, Australia","spatial_roleName":null,"spatial_interactionType":"Production","spatial_geo":"-29.48,146.33","spatial_description":null,"id":"10782","lat":"-29.48","lon":"146.33"},{"spatial_id":"4291","spatial_type":"Place","spatial_title":"Castleford, West Yorkshire, England","spatial_roleName":"Place made","spatial_interactionType":"Production","spatial_geo":"53.7233,-1.3458","spatial_description":null,"id":"219085","lat":"53.7233","lon":"-1.3458"},{"spatial_id":"2002","spatial_type":"Place","spatial_title":"Victoria River, Northern Territory, Australia","spatial_roleName":null,"spatial_interactionType":"Production","spatial_geo":"-15,129.58","spatial_description":null,"id":"11373","lat":"-15","lon":"129.58"},{"spatial_id":"1492","spatial_type":"Place","spatial_title":"North-eastern South Australia, South Australia, Australia","spatial_roleName":null,"spatial_interactionType":"Production","spatial_geo":"-27.9933,138.977","spatial_description":null,"id":"53558","lat":"-27.9933","lon":"138.977"},{"spatial_id":"713","spatial_type":"Place","spatial_title":"Finke River, Northern Territory, Australia","spatial_roleName":null,"spatial_interactionType":"Production","spatial_geo":"-25.98,135.33","spatial_description":null,"id":"11039","lat":"-25.98","lon":"135.33"},{"spatial_id":"2489","spatial_type":"Place","spatial_title":"Canning Stock Route, Australia","spatial_roleName":null,"spatial_interactionType":"Production","spatial_geo":"-25.9775,120.324","spatial_description":null,"id":"160007","lat":"-25.9775","lon":"120.324"},{"spatial_id":"1066","spatial_type":"Place","spatial_title":"Lake Condah, Victoria, Australia","spatial_roleName":null,"spatial_interactionType":"Production","spatial_geo":"-38.05,141.83","spatial_description":null,"id":"6691","lat":"-38.05","lon":"141.83"},{"spatial_id":"1477","spatial_type":"Place","spatial_title":"Henbury, Northern Territory, Australia","spatial_roleName":"Place made","spatial_interactionType":"Production","spatial_geo":"-24.55,133.25","spatial_description":null,"id":"58986","lat":"-24.55","lon":"133.25"},{"spatial_id":"1112","spatial_type":"Place","spatial_title":"Leura, Blue Mountains, New South Wales, Australia","spatial_roleName":"Place photographed","spatial_interactionType":"Production","spatial_geo":"-33.7,150.33","spatial_description":null,"id":"60714","lat":"-33.7","lon":"150.33"},{"spatial_id":"80077","spatial_type":"Place","spatial_title":"Nullarbor Plain, Australia","spatial_roleName":null,"spatial_interactionType":"Production","spatial_geo":"-30.8631,130.362","spatial_description":null,"id":"11035","lat":"-30.8631","lon":"130.362"},{"spatial_id":"1424","spatial_type":"Place","spatial_title":"Nepabunna, South Australia, Australia","spatial_roleName":null,"spatial_interactionType":"Production","spatial_geo":"-30.57,138.97","spatial_description":null,"id":"36097","lat":"-30.57","lon":"138.97"},{"spatial_id":"1452","spatial_type":"Place","spatial_title":"Wurrumiyanga (Nguiu), Bathurst Island, Tiwi Islands, Northern Territory, Australia","spatial_roleName":"Place created","spatial_interactionType":"Production","spatial_geo":"-11.75,130.63","spatial_description":null,"id":"44245","lat":"-11.75","lon":"130.63"},{"spatial_id":"1843","spatial_type":"Place","spatial_title":"Stradbroke Island, Queensland, Australia","spatial_roleName":null,"spatial_interactionType":"Production","spatial_geo":"-27.864,153.423","spatial_description":null,"id":"10687","lat":"-27.864","lon":"153.423"},{"spatial_id":"71","spatial_type":"Place","spatial_title":"Kabara Island, Lau Eastern group, Fiji","spatial_roleName":"Place made","spatial_interactionType":"Production","spatial_geo":"-18.9592,-178.951","spatial_description":null,"id":"67408","lat":"-18.9592","lon":"-178.951"},{"spatial_id":"1590","spatial_type":"Place","spatial_title":"Parramatta, Sydney, New South Wales, Australia","spatial_roleName":"Place of publication","spatial_interactionType":"Production","spatial_geo":"-34.0333,137.617","spatial_description":null,"id":"76368","lat":"-34.0333","lon":"137.617"},{"spatial_id":"1449","spatial_type":"Place","spatial_title":"Newtown, Sydney, New South Wales, Australia","spatial_roleName":"Place made","spatial_interactionType":"Production","spatial_geo":"-33.88,151.18","spatial_description":"H.H. Stocks","id":"228212","lat":"-33.88","lon":"151.18"},{"spatial_id":"901","spatial_type":"Place","spatial_title":"Herberton, Queensland, Australia","spatial_roleName":null,"spatial_interactionType":"Production","spatial_geo":"-17.38,145.38","spatial_description":null,"id":"10400","lat":"-17.38","lon":"145.38"},{"spatial_id":"2146","spatial_type":"Place","spatial_title":"Yaamba, Rockhampton, Queensland, Australia","spatial_roleName":null,"spatial_interactionType":"Production","spatial_geo":"-23.1333,150.375","spatial_description":null,"id":"10642","lat":"-23.1333","lon":"150.375"},{"spatial_id":"1968","spatial_type":"Place","spatial_title":"Pyramul, New South Wales, Australia","spatial_roleName":null,"spatial_interactionType":"Production","spatial_geo":"-32.8833,149.617","spatial_description":null,"id":"128131","lat":"-32.8833","lon":"149.617"},{"spatial_id":"1532","spatial_type":"Place","spatial_title":"Numbulwar, East Arnhem Land, Northern Territory, Australia","spatial_roleName":null,"spatial_interactionType":"Production","spatial_geo":"-14.27,135.73","spatial_description":null,"id":"19438","lat":"-14.27","lon":"135.73"},{"spatial_id":"150","spatial_type":"Place","spatial_title":"Beaconsfield, Melbourne, Victoria, Australia","spatial_roleName":"Place made","spatial_interactionType":"Production","spatial_geo":"-38.0507,145.366","spatial_description":"Ayerhill Farm","id":"50326","lat":"-38.0507","lon":"145.366"},{"spatial_id":"134","spatial_type":"Place","spatial_title":"Atherton Tableland, Queensland, Australia","spatial_roleName":null,"spatial_interactionType":"Production","spatial_geo":"-17.25,145.47","spatial_description":"Place may be an attribution by source","id":"21110","lat":"-17.25","lon":"145.47"},{"spatial_id":"1290","spatial_type":"Place","spatial_title":"Moonee Ponds, Melbourne, Victoria, Australia","spatial_roleName":"Place of production","spatial_interactionType":"Production","spatial_geo":"-37.75,144.92","spatial_description":null,"id":"34240","lat":"-37.75","lon":"144.92"},{"spatial_id":"213","spatial_type":"Place","spatial_title":"Bavaria, Germany","spatial_roleName":"Place of publication","spatial_interactionType":"Production","spatial_geo":"48.7906,11.4978","spatial_description":null,"id":"132981","lat":"48.7906","lon":"11.4978"},{"spatial_id":"2399","spatial_type":"Place","spatial_title":"Oenpelli Hill, Western Arnhem Land, Northern Territory, Australia","spatial_roleName":null,"spatial_interactionType":"Production","spatial_geo":"-12.3339,133.065","spatial_description":null,"id":"146856","lat":"-12.3339","lon":"133.065"},{"spatial_id":"2162","spatial_type":"Place","spatial_title":"Yass, New South Wales, Australia","spatial_roleName":"Place of issue","spatial_interactionType":"Production","spatial_geo":"-34.82,148.9","spatial_description":null,"id":"127688","lat":"-34.82","lon":"148.9"},{"spatial_id":"97","spatial_type":"Place","spatial_title":"Aitape, West Sepik, Papua New Guinea","spatial_roleName":null,"spatial_interactionType":"Production","spatial_geo":"-3.1539,142.364","spatial_description":null,"id":"67393","lat":"-3.1539","lon":"142.364"},{"spatial_id":"539","spatial_type":"Place","spatial_title":"Dursley, Gloucestershire, England","spatial_roleName":"Place made","spatial_interactionType":"Production","spatial_geo":"51.6786,-2.3506","spatial_description":"RA Lister, a Hawker Siddeley Company","id":"110226","lat":"51.6786","lon":"-2.3506"},{"spatial_id":"1753","spatial_type":"Place","spatial_title":"Sale, Victoria, Australia","spatial_roleName":null,"spatial_interactionType":"Production","spatial_geo":"-38.1,147.07","spatial_description":null,"id":"18849","lat":"-38.1","lon":"147.07"},{"spatial_id":"1855","spatial_type":"Place","spatial_title":"Sunday Island, Western Australia, Australia","spatial_roleName":"Place designed","spatial_interactionType":"Production","spatial_geo":"-21.406,116.944","spatial_description":null,"id":"11869","lat":"-21.406","lon":"116.944"},{"spatial_id":"940","spatial_type":"Place","spatial_title":"Japan","spatial_roleName":"Place made","spatial_interactionType":"Production","spatial_geo":"35.7089,139.732","spatial_description":null,"id":"227960","lat":"35.7089","lon":"139.732"},{"spatial_id":"1859","spatial_type":"Place","spatial_title":"Surry Hills, Sydney, New South Wales, Australia","spatial_roleName":"Place made","spatial_interactionType":"Production","spatial_geo":"-33.88,151.22","spatial_description":null,"id":"58402","lat":"-33.88","lon":"151.22"},{"spatial_id":"1892","spatial_type":"Place","spatial_title":"Taree, New South Wales, Australia","spatial_roleName":null,"spatial_interactionType":"Production","spatial_geo":"-31.9,152.45","spatial_description":null,"id":"19447","lat":"-31.9","lon":"152.45"},{"spatial_id":"83","spatial_type":"Place","spatial_title":"Malakula Island, Malampa Province, Vanuatu, Oceania","spatial_roleName":"Place made","spatial_interactionType":"Production","spatial_geo":"-16.3031,167.516","spatial_description":null,"id":"69714","lat":"-16.3031","lon":"167.516"},{"spatial_id":"2636","spatial_type":"Place","spatial_title":"Bethlehem, West Bank, Israel","spatial_roleName":"Place made","spatial_interactionType":"Production","spatial_geo":"31.7053,35.2025","spatial_description":null,"id":"56246","lat":"31.7053","lon":"35.2025"},{"spatial_id":"2462","spatial_type":"Place","spatial_title":"Johannesburg, Gauteng, South Africa","spatial_roleName":"Place of publication","spatial_interactionType":"Production","spatial_geo":"-26.2042,28.0472","spatial_description":null,"id":"112860","lat":"-26.2042","lon":"28.0472"},{"spatial_id":"2474","spatial_type":"Place","spatial_title":"Canley Vale, Sydney, New South Wales, Australia","spatial_roleName":"Place made","spatial_interactionType":"Production","spatial_geo":"-33.8817,150.943","spatial_description":null,"id":"40820","lat":"-33.8817","lon":"150.943"},{"spatial_id":"2037","spatial_type":"Place","spatial_title":"Warakurna Community, Western Australia, Australia","spatial_roleName":"Place made","spatial_interactionType":"Production","spatial_geo":"-25.0086,128.29","spatial_description":null,"id":"213024","lat":"-25.0086","lon":"128.29"},{"spatial_id":"1938","spatial_type":"Place","spatial_title":"Townsville, Queensland, Australia","spatial_roleName":null,"spatial_interactionType":"Production","spatial_geo":"-19.25,146.82","spatial_description":null,"id":"52866","lat":"-19.25","lon":"146.82"},{"spatial_id":"2376","spatial_type":"Place","spatial_title":"Cherbourg Mission, Cherbourg, Queensland, Australia","spatial_roleName":"Place made","spatial_interactionType":"Production","spatial_geo":"-26.2919,151.954","spatial_description":null,"id":"151628","lat":"-26.2919","lon":"151.954"},{"spatial_id":"1420","spatial_type":"Place","spatial_title":"Australia","spatial_roleName":"Place assembled","spatial_interactionType":"Production","spatial_geo":"-21.6897,148.691","spatial_description":null,"id":"221445","lat":"-21.6897","lon":"148.691"},{"spatial_id":"1361","spatial_type":"Place","spatial_title":"Mungeranie, South Australia, Australia","spatial_roleName":null,"spatial_interactionType":"Production","spatial_geo":"-28.02,138.65","spatial_description":null,"id":"6806","lat":"-28.02","lon":"138.65"},{"spatial_id":"433","spatial_type":"Place","spatial_title":"Ceduna, South Australia, Australia","spatial_roleName":"Place created","spatial_interactionType":"Production","spatial_geo":"-32.12,133.67","spatial_description":null,"id":"44197","lat":"-32.12","lon":"133.67"},{"spatial_id":"2016","spatial_type":"Place","spatial_title":"Walcott Inlet, Western Australia, Australia","spatial_roleName":"Place made","spatial_interactionType":"Production","spatial_geo":"-16.37,124.58","spatial_description":null,"id":"15926","lat":"-16.37","lon":"124.58"},{"spatial_id":"1711","spatial_type":"Place","spatial_title":"Ripple Creek, Queensland, Australia","spatial_roleName":null,"spatial_interactionType":"Production","spatial_geo":"-18.58,146.2","spatial_description":null,"id":"6707","lat":"-18.58","lon":"146.2"},{"spatial_id":"191","spatial_type":"Place","spatial_title":"Barron River, Queensland, Australia","spatial_roleName":"Place made","spatial_interactionType":"Production","spatial_geo":"-16.87,145.77","spatial_description":null,"id":"10387","lat":"-16.87","lon":"145.77"},{"spatial_id":"1545","spatial_type":"Place","spatial_title":"Santa Teresa, Northern Territory, Australia","spatial_roleName":"Place made","spatial_interactionType":"Production","spatial_geo":"-24.1307,134.373","spatial_description":"Ltyentye Apurte Community","id":"68383","lat":"-24.1307","lon":"134.373"},{"spatial_id":"1058","spatial_type":"Place","spatial_title":"La Perouse, Sydney, New South Wales, Australia","spatial_roleName":"Place made","spatial_interactionType":"Production","spatial_geo":"-33.97,151.23","spatial_description":null,"id":"139648","lat":"-33.97","lon":"151.23"},{"spatial_id":"1498","spatial_type":"Place","spatial_title":"North-western Macdonnell Ranges, Northern Territory, Australia","spatial_roleName":null,"spatial_interactionType":"Production","spatial_geo":"-23.9601,132.776","spatial_description":null,"id":"37222","lat":"-23.9601","lon":"132.776"},{"spatial_id":"109","spatial_type":"Place","spatial_title":"Antarctica","spatial_roleName":"Place written","spatial_interactionType":"Production","spatial_geo":"-75.2508,-0.0714","spatial_description":null,"id":"180421","lat":"-75.2508","lon":"-0.0714"},{"spatial_id":"21","spatial_type":"Place","spatial_title":"Sandy Blight Junction, Northern Territory, Australia","spatial_roleName":"Place made","spatial_interactionType":"Production","spatial_geo":"-23.1925,129.56","spatial_description":"Catalogue card.","id":"19586","lat":"-23.1925","lon":"129.56"},{"spatial_id":"1243","spatial_type":"Place","spatial_title":"Merigal, New South Wales, Australia","spatial_roleName":null,"spatial_interactionType":"Production","spatial_geo":"-31.5025,148.262","spatial_description":null,"id":"10738","lat":"-31.5025","lon":"148.262"},